county,state,latitude,longitude
Jefferson County,Alabama,33.5543,-86.8964
Mobile County,Alabama,30.7877,-88.2058
Madison County,Alabama,34.7631,-86.5502
Baldwin County,Alabama,30.7277,-87.7226
Tuscaloosa County,Alabama,33.2896,-87.5251
Montgomery County,Alabama,32.2203,-86.2076
Shelby County,Alabama,33.2643,-86.6607
Lee County,Alabama,32.6011,-85.3555
Morgan County,Alabama,34.4535,-86.8529
Calhoun County,Alabama,33.7714,-85.826
Houston County,Alabama,31.1532,-85.3025
Limestone County,Alabama,34.8101,-86.9814
Etowah County,Alabama,34.0453,-86.0348
Marshall County,Alabama,34.367,-86.3066
Lauderdale County,Alabama,34.9014,-87.654
St. Clair County,Alabama,33.7157,-86.3146
Cullman County,Alabama,34.1319,-86.8676
Elmore County,Alabama,32.5966,-86.1492
Talladega County,Alabama,33.3801,-86.1659
DeKalb County,Alabama,34.4598,-85.8041
Walker County,Alabama,33.8033,-87.2973
Blount County,Alabama,33.9809,-86.5674
Russell County,Alabama,32.2884,-85.1849
Autauga County,Alabama,32.5349,-86.6427
Colbert County,Alabama,34.7005,-87.8049
Coffee County,Alabama,31.4027,-85.9882
Jackson County,Alabama,34.7795,-85.9994
Dale County,Alabama,31.4318,-85.611
Chilton County,Alabama,32.8479,-86.7188
Tallapoosa County,Alabama,32.8624,-85.7975
Dallas County,Alabama,32.326,-87.1065
Covington County,Alabama,31.2485,-86.4513
Escambia County,Alabama,31.1261,-87.1616
Chambers County,Alabama,32.9143,-85.392
Lawrence County,Alabama,34.5217,-87.311
Pike County,Alabama,31.8027,-85.9409
Franklin County,Alabama,34.4417,-87.8437
Marion County,Alabama,34.1366,-87.8871
Geneva County,Alabama,31.0951,-85.8391
Cherokee County,Alabama,34.1759,-85.6038
Barbour County,Alabama,31.8696,-85.3932
Winston County,Alabama,34.1492,-87.3737
Clarke County,Alabama,31.6767,-87.8308
Bibb County,Alabama,32.9986,-87.1265
Randolph County,Alabama,33.2938,-85.4591
Monroe County,Alabama,31.5709,-87.3654
Macon County,Alabama,32.3859,-85.6926
Marengo County,Alabama,32.2477,-87.7895
Butler County,Alabama,31.7524,-86.6803
Pickens County,Alabama,33.2808,-88.0887
Henry County,Alabama,31.5147,-85.2414
Fayette County,Alabama,33.7212,-87.7389
Washington County,Alabama,31.4076,-88.2079
Cleburne County,Alabama,33.6745,-85.5188
Hale County,Alabama,32.7627,-87.6291
Clay County,Alabama,33.269,-85.8605
Lamar County,Alabama,33.7791,-88.097
Crenshaw County,Alabama,31.7315,-86.3136
Choctaw County,Alabama,32.0198,-88.2632
Sumter County,Alabama,32.5911,-88.1988
Conecuh County,Alabama,31.4293,-86.9937
Wilcox County,Alabama,31.9893,-87.3082
Coosa County,Alabama,32.9362,-86.2477
Bullock County,Alabama,32.1005,-85.7157
Lowndes County,Alabama,32.1547,-86.6501
Perry County,Alabama,32.6385,-87.2944
Greene County,Alabama,32.8531,-87.9522
Anchorage Municipality,Alaska,61.1498,-149.1082
Matanuska-Susitna Borough,Alaska,62.316,-149.5729
Fairbanks North Star Borough,Alaska,64.8078,-146.5654
Kenai Peninsula Borough,Alaska,60.2654,-151.5651
Juneau City and Borough,Alaska,58.4546,-134.1733
Bethel Census Area,Alaska,60.9132,-159.8186
Ketchikan Gateway Borough,Alaska,55.5852,-130.9282
Kodiak Island Borough,Alaska,57.6791,-153.7992
North Slope Borough,Alaska,69.3119,-153.4813
Nome Census Area,Alaska,64.9111,-164.0274
Sitka City and Borough,Alaska,57.2424,-135.3145
Kusilvak Census Area,Alaska,62.1547,-163.3812
Northwest Arctic Borough,Alaska,67.0598,-159.7062
Chugach Census Area,Alaska,60.7234,-145.7714
Southeast Fairbanks Census Area,Alaska,63.8762,-143.213
Prince of Wales-Hyder Census Area,Alaska,55.8011,-133.0167
Yukon-Koyukuk Census Area,Alaska,65.5087,-151.3896
Aleutians West Census Area,Alaska,52.7985,-106.5633
Dillingham Census Area,Alaska,59.8003,-158.2346
Aleutians East Borough,Alaska,55.3671,-161.9803
Petersburg Borough,Alaska,57.1204,-132.934
Copper River Census Area,Alaska,61.8834,-143.9681
Hoonah-Angoon Census Area,Alaska,58.2873,-135.6402
Wrangell City and Borough,Alaska,56.3323,-132.0221
Denali Borough,Alaska,63.6714,-150.0118
Haines Borough,Alaska,59.1198,-135.5001
Skagway Municipality,Alaska,59.563,-135.3363
Lake and Peninsula Borough,Alaska,58.6548,-156.1891
Bristol Bay Borough,Alaska,58.7439,-156.7
Yakutat City and Borough,Alaska,59.8889,-140.3576
Maricopa County,Arizona,33.349,-112.4915
Pima County,Arizona,32.0974,-111.7899
Pinal County,Arizona,32.9044,-111.3448
Yavapai County,Arizona,34.5998,-112.5537
Mohave County,Arizona,35.7041,-113.7579
Yuma County,Arizona,32.7695,-113.9056
Coconino County,Arizona,35.8387,-111.7705
Cochise County,Arizona,31.8796,-109.7512
Navajo County,Arizona,35.3996,-110.3214
Apache County,Arizona,35.3955,-109.4888
Gila County,Arizona,33.7997,-110.8116
Santa Cruz County,Arizona,31.5259,-110.8465
Graham County,Arizona,32.9326,-109.8875
La Paz County,Arizona,33.7294,-113.9815
Greenlee County,Arizona,33.2152,-109.2402
Pulaski County,Arkansas,34.77,-92.312
Benton County,Arkansas,36.3387,-94.2561
Washington County,Arkansas,35.9791,-94.2156
Sebastian County,Arkansas,35.1989,-94.2743
Faulkner County,Arkansas,35.147,-92.332
Saline County,Arkansas,34.6466,-92.6766
Craighead County,Arkansas,35.8308,-90.6328
Garland County,Arkansas,34.5767,-93.1504
White County,Arkansas,35.2563,-91.7456
Lonoke County,Arkansas,34.7543,-91.8888
Jefferson County,Arkansas,34.2683,-91.9304
Pope County,Arkansas,35.4479,-93.0345
Crawford County,Arkansas,35.5881,-94.2428
Crittenden County,Arkansas,35.2057,-90.3078
Greene County,Arkansas,36.1175,-90.5589
Miller County,Arkansas,33.3124,-93.8921
Baxter County,Arkansas,36.2872,-92.3369
Mississippi County,Arkansas,35.7624,-90.0522
Union County,Arkansas,33.1713,-92.5972
Independence County,Arkansas,35.7416,-91.5697
Boone County,Arkansas,36.3086,-93.0915
Hot Spring County,Arkansas,34.3177,-92.9461
Carroll County,Arkansas,36.341,-93.5382
Johnson County,Arkansas,35.5697,-93.4602
Cleburne County,Arkansas,35.5382,-92.0267
St. Francis County,Arkansas,35.022,-90.7478
Poinsett County,Arkansas,35.574,-90.663
Columbia County,Arkansas,33.2143,-93.2273
Ouachita County,Arkansas,33.5934,-92.8819
Clark County,Arkansas,34.051,-93.1764
Logan County,Arkansas,35.2149,-93.7166
Conway County,Arkansas,35.2624,-92.7014
Yell County,Arkansas,35.0026,-93.4108
Hempstead County,Arkansas,33.7354,-93.6684
Polk County,Arkansas,34.4858,-94.2282
Ashley County,Arkansas,33.1912,-91.7685
Randolph County,Arkansas,36.3415,-91.0276
Grant County,Arkansas,34.29,-92.4237
Sharp County,Arkansas,36.1612,-91.4798
Drew County,Arkansas,33.5894,-91.72
Franklin County,Arkansas,35.5124,-93.8906
Arkansas County,Arkansas,34.2892,-91.3742
Marion County,Arkansas,36.2684,-92.6842
Cross County,Arkansas,35.2957,-90.7711
Jackson County,Arkansas,35.5992,-91.2145
Madison County,Arkansas,36.011,-93.7246
Phillips County,Arkansas,34.4274,-90.8489
Lawrence County,Arkansas,36.0412,-91.107
Sevier County,Arkansas,33.9972,-94.2412
Van Buren County,Arkansas,35.5806,-92.5158
Clay County,Arkansas,36.3682,-90.4176
Izard County,Arkansas,36.0949,-91.9134
Lincoln County,Arkansas,33.957,-91.7344
Howard County,Arkansas,34.0889,-93.9936
Stone County,Arkansas,35.8599,-92.1568
Fulton County,Arkansas,36.3817,-91.8182
Little River County,Arkansas,33.7009,-94.2352
Desha County,Arkansas,33.8309,-91.2551
Bradley County,Arkansas,33.4664,-92.1624
Chicot County,Arkansas,33.267,-91.2937
Pike County,Arkansas,34.1635,-93.6564
Perry County,Arkansas,34.9475,-92.9313
Scott County,Arkansas,34.8607,-94.0632
Lee County,Arkansas,34.7805,-90.7808
Montgomery County,Arkansas,34.5389,-93.6596
Nevada County,Arkansas,33.664,-93.3072
Prairie County,Arkansas,34.8298,-91.5528
Searcy County,Arkansas,35.911,-92.6995
Cleveland County,Arkansas,33.8984,-92.1852
Newton County,Arkansas,35.92,-93.2179
Monroe County,Arkansas,34.6778,-91.2039
Dallas County,Arkansas,33.9699,-92.6544
Lafayette County,Arkansas,33.2416,-93.607
Woodruff County,Arkansas,35.1863,-91.2431
Calhoun County,Arkansas,33.5581,-92.503
Los Angeles County,California,34.3219,-118.2247
San Diego County,California,33.0343,-116.7351
Orange County,California,33.7031,-117.7609
Riverside County,California,33.7437,-115.9938
San Bernardino County,California,34.8414,-116.1785
Santa Clara County,California,37.2318,-121.6951
Alameda County,California,37.6469,-121.8887
Sacramento County,California,38.4493,-121.3443
Contra Costa County,California,37.9192,-121.9275
Fresno County,California,36.7582,-119.6493
Kern County,California,35.3426,-118.7301
San Francisco County,California,37.7556,-122.445
Ventura County,California,34.4561,-119.0836
San Joaquin County,California,37.9348,-121.2714
San Mateo County,California,37.4228,-122.3291
Stanislaus County,California,37.5591,-120.9977
Sonoma County,California,38.529,-122.8882
Tulare County,California,36.2202,-118.8005
Solano County,California,38.27,-121.9328
Santa Barbara County,California,34.6729,-120.0169
Monterey County,California,36.2171,-121.2388
Placer County,California,39.0634,-120.7177
Merced County,California,37.1919,-120.7177
San Luis Obispo County,California,35.3871,-120.4044
Santa Cruz County,California,37.0562,-122.0018
Marin County,California,38.0734,-122.7234
Yolo County,California,38.6866,-121.9011
Butte County,California,39.6669,-121.6007
El Dorado County,California,38.7787,-120.5247
Shasta County,California,40.7637,-122.0405
Imperial County,California,33.0395,-115.3654
Madera County,California,37.218,-119.7627
Kings County,California,36.0752,-119.8155
Napa County,California,38.507,-122.3306
Humboldt County,California,40.6993,-123.8756
Nevada County,California,39.3013,-120.7689
Sutter County,California,39.0346,-121.6948
Mendocino County,California,39.4402,-123.3915
Yuba County,California,39.269,-121.3513
Lake County,California,39.1,-122.7534
Tehama County,California,40.1256,-122.2341
San Benito County,California,36.6057,-121.075
Tuolumne County,California,38.0276,-119.9548
Calaveras County,California,38.2046,-120.5541
Siskiyou County,California,41.5927,-122.5404
Amador County,California,38.4464,-120.6511
Lassen County,California,40.6736,-120.5943
Glenn County,California,39.5981,-122.3919
Del Norte County,California,41.7431,-123.8972
Colusa County,California,39.1775,-122.237
Plumas County,California,40.0046,-120.8385
Inyo County,California,36.5111,-117.4107
Mariposa County,California,37.5815,-119.9054
Trinity County,California,40.6507,-123.1126
Mono County,California,37.9391,-118.8868
Modoc County,California,41.5898,-120.725
Sierra County,California,39.5803,-120.5161
Alpine County,California,38.5972,-119.8207
El Paso County,Colorado,38.8321,-104.5254
Denver County,Colorado,39.762,-104.8758
Arapahoe County,Colorado,39.6498,-104.3393
Jefferson County,Colorado,39.5864,-105.2505
Adams County,Colorado,39.8736,-104.3379
Douglas County,Colorado,39.3298,-104.9293
Larimer County,Colorado,40.6664,-105.4611
Weld County,Colorado,40.5548,-104.3925
Boulder County,Colorado,40.0925,-105.3577
Pueblo County,Colorado,38.1735,-104.5127
Mesa County,Colorado,39.0183,-108.4664
Broomfield County,Colorado,39.9541,-105.0527
Garfield County,Colorado,39.5993,-107.9039
La Plata County,Colorado,37.2866,-107.8433
Eagle County,Colorado,39.6278,-106.6953
Fremont County,Colorado,38.4731,-105.4395
Montrose County,Colorado,38.4022,-108.2693
Delta County,Colorado,38.8614,-107.8629
Summit County,Colorado,39.6342,-106.1164
Morgan County,Colorado,40.2626,-103.8097
Elbert County,Colorado,39.2865,-104.1357
Montezuma County,Colorado,37.3386,-108.5966
Routt County,Colorado,40.4852,-106.9913
Teller County,Colorado,38.8824,-105.1617
Logan County,Colorado,40.7247,-103.1101
Chaffee County,Colorado,38.747,-106.1941
Otero County,Colorado,37.9026,-103.7165
Park County,Colorado,39.1194,-105.7172
Pitkin County,Colorado,39.2171,-106.9166
Gunnison County,Colorado,38.6667,-107.0316
Alamosa County,Colorado,37.5729,-105.7883
Grand County,Colorado,40.1026,-106.1183
Las Animas County,Colorado,37.3158,-104.0386
Archuleta County,Colorado,37.1935,-107.0483
Moffat County,Colorado,40.6184,-108.2074
Prowers County,Colorado,37.9552,-102.3934
Rio Grande County,Colorado,37.5825,-106.3832
Yuma County,Colorado,40.0029,-102.4243
Clear Creek County,Colorado,39.6891,-105.6444
San Miguel County,Colorado,38.0038,-108.4057
Conejos County,Colorado,37.2007,-106.1916
Lake County,Colorado,39.2025,-106.3448
Kit Carson County,Colorado,39.3055,-102.603
Huerfano County,Colorado,37.6847,-104.9606
Rio Blanco County,Colorado,39.9798,-108.217
Saguache County,Colorado,38.0805,-106.2815
Gilpin County,Colorado,39.8575,-105.5226
Crowley County,Colorado,38.3266,-103.7845
Lincoln County,Colorado,38.9881,-103.514
Bent County,Colorado,37.9551,-103.0717
Ouray County,Colorado,38.1555,-107.7693
Custer County,Colorado,38.1087,-105.3675
Washington County,Colorado,39.971,-103.2012
Phillips County,Colorado,40.594,-102.3576
Costilla County,Colorado,37.2781,-105.4282
Baca County,Colorado,37.3192,-102.5604
Sedgwick County,Colorado,40.8759,-102.3518
Dolores County,Colorado,37.7517,-108.5174
Cheyenne County,Colorado,38.8279,-102.6036
Jackson County,Colorado,40.6664,-106.3428
Kiowa County,Colorado,38.4326,-102.7402
Hinsdale County,Colorado,37.8213,-107.3003
Mineral County,Colorado,37.6689,-106.9241
San Juan County,Colorado,37.764,-107.6762
Capitol Planning Region,Connecticut,41.8185,-72.572
Western Connecticut Planning Region,Connecticut,41.3225,-73.4475
South Central Connecticut Planning Region,Connecticut,41.3613,-72.8445
Naugatuck Valley Planning Region,Connecticut,41.5231,-73.086
Greater Bridgeport Planning Region,Connecticut,41.2428,-73.2314
Southeastern Connecticut Planning Region,Connecticut,41.5023,-72.1
Lower Connecticut River Valley Planning Region,Connecticut,41.45,-72.5073
Northwest Hills Planning Region,Connecticut,41.8469,-73.2212
Northeastern Connecticut Planning Region,Connecticut,41.827,-71.9769
New Castle County,Delaware,39.5768,-75.6527
Sussex County,Delaware,38.6606,-75.39
Kent County,Delaware,39.086,-75.5686
District of Columbia,District of Columbia,38.9047,-77.0163
Miami-Dade County,Florida,25.615,-80.5624
Broward County,Florida,26.1523,-80.4871
Palm Beach County,Florida,26.6476,-80.4655
Hillsborough County,Florida,27.9292,-82.3088
Orange County,Florida,28.5144,-81.3235
Duval County,Florida,30.3313,-81.6715
Pinellas County,Florida,27.9198,-82.7255
Lee County,Florida,26.578,-81.8332
Polk County,Florida,27.9489,-81.6976
Brevard County,Florida,28.2937,-80.7323
Pasco County,Florida,28.3092,-82.392
Volusia County,Florida,29.0584,-81.1819
Seminole County,Florida,28.717,-81.2363
Sarasota County,Florida,27.1845,-82.3315
Manatee County,Florida,27.4719,-82.3153
Osceola County,Florida,28.0626,-81.1495
Lake County,Florida,28.7615,-81.7113
Collier County,Florida,26.1108,-81.3474
Marion County,Florida,29.2102,-82.0567
St. Lucie County,Florida,27.3773,-80.4721
Escambia County,Florida,30.669,-87.363
Leon County,Florida,30.458,-84.2779
Alachua County,Florida,29.6747,-82.3577
St. Johns County,Florida,29.9016,-81.4407
Clay County,Florida,29.9831,-81.8579
Okaloosa County,Florida,30.6913,-86.5917
Hernando County,Florida,28.5537,-82.424
Charlotte County,Florida,26.9058,-81.9114
Santa Rosa County,Florida,30.7004,-87.0219
Bay County,Florida,30.2652,-85.6203
Indian River County,Florida,27.6943,-80.6064
Martin County,Florida,27.0775,-80.4315
Citrus County,Florida,28.8489,-82.4794
Sumter County,Florida,28.7048,-82.081
Flagler County,Florida,29.4614,-81.3136
Highlands County,Florida,27.3433,-81.341
Nassau County,Florida,30.6107,-81.8019
Monroe County,Florida,25.3192,-81.1089
Walton County,Florida,30.6436,-86.1697
Putnam County,Florida,29.6087,-81.7443
Columbia County,Florida,30.2242,-82.6215
Jackson County,Florida,30.7954,-85.2155
Suwannee County,Florida,30.1956,-82.9915
Gadsden County,Florida,30.5795,-84.6136
Levy County,Florida,29.3184,-82.7434
Hendry County,Florida,26.5535,-81.1659
Okeechobee County,Florida,27.3864,-80.8886
DeSoto County,Florida,27.1864,-81.8095
Wakulla County,Florida,30.1673,-84.4007
Baker County,Florida,30.3311,-82.2846
Bradford County,Florida,29.95,-82.1687
Hardee County,Florida,27.4927,-81.81
Washington County,Florida,30.6106,-85.6653
Taylor County,Florida,30.047,-83.6035
Holmes County,Florida,30.8679,-85.814
Gilchrist County,Florida,29.7258,-82.8004
Madison County,Florida,30.4441,-83.4701
Dixie County,Florida,29.6086,-83.1587
Union County,Florida,30.0439,-82.3714
Gulf County,Florida,29.9565,-85.2263
Jefferson County,Florida,30.4375,-83.8953
Calhoun County,Florida,30.406,-85.1972
Hamilton County,Florida,30.4964,-82.9479
Franklin County,Florida,29.8766,-84.8137
Glades County,Florida,26.9564,-81.189
Lafayette County,Florida,29.9855,-83.1811
Liberty County,Florida,30.2414,-84.8829
Fulton County,Georgia,33.7902,-84.467
Gwinnett County,Georgia,33.9617,-84.0236
Cobb County,Georgia,33.9415,-84.5767
DeKalb County,Georgia,33.7716,-84.2264
Clayton County,Georgia,33.542,-84.3576
Chatham County,Georgia,32.0043,-81.1329
Cherokee County,Georgia,34.244,-84.4762
Forsyth County,Georgia,34.2255,-84.1251
Henry County,Georgia,33.453,-84.1542
Richmond County,Georgia,33.3596,-82.0736
Hall County,Georgia,34.3169,-83.8197
Muscogee County,Georgia,32.51,-84.8771
Paulding County,Georgia,33.9206,-84.8673
Houston County,Georgia,32.459,-83.6662
Columbia County,Georgia,33.5441,-82.2641
Bibb County,Georgia,32.8065,-83.6974
Coweta County,Georgia,33.3534,-84.7634
Douglas County,Georgia,33.7018,-84.768
Clarke County,Georgia,33.9512,-83.3673
Carroll County,Georgia,33.5828,-85.0798
Fayette County,Georgia,33.4139,-84.4943
Lowndes County,Georgia,30.8338,-83.2677
Newton County,Georgia,33.555,-83.8502
Bartow County,Georgia,34.2377,-84.8403
Whitfield County,Georgia,34.8056,-84.9672
Floyd County,Georgia,34.2632,-85.2143
Walton County,Georgia,33.7816,-83.7339
Rockdale County,Georgia,33.6543,-84.0266
Dougherty County,Georgia,31.5335,-84.2164
Glynn County,Georgia,31.2309,-81.5407
Barrow County,Georgia,33.9932,-83.7127
Bulloch County,Georgia,32.3968,-81.7432
Jackson County,Georgia,34.1339,-83.5664
Troup County,Georgia,33.0335,-85.0284
Walker County,Georgia,34.7356,-85.301
Catoosa County,Georgia,34.9036,-85.1382
Spalding County,Georgia,33.2609,-84.2841
Liberty County,Georgia,31.8282,-81.4949
Effingham County,Georgia,32.3674,-81.3414
Gordon County,Georgia,34.5032,-84.8759
Camden County,Georgia,30.9306,-81.6699
Laurens County,Georgia,32.4636,-82.9222
Habersham County,Georgia,34.631,-83.5311
Colquitt County,Georgia,31.1884,-83.7688
Thomas County,Georgia,30.8637,-83.9193
Bryan County,Georgia,32.0145,-81.4436
Baldwin County,Georgia,33.0693,-83.2495
Coffee County,Georgia,31.5493,-82.8492
Polk County,Georgia,34.0018,-85.1881
Oconee County,Georgia,33.835,-83.4371
Tift County,Georgia,31.4574,-83.5266
Murray County,Georgia,34.7884,-84.7481
Ware County,Georgia,31.0538,-82.4237
Harris County,Georgia,32.736,-84.9089
Pickens County,Georgia,34.4643,-84.4656
Lumpkin County,Georgia,34.5722,-84.0027
Lee County,Georgia,31.7796,-84.1412
Gilmer County,Georgia,34.6912,-84.4556
Madison County,Georgia,34.1278,-83.209
Wayne County,Georgia,31.5515,-81.9168
Haralson County,Georgia,33.7942,-85.211
Sumter County,Georgia,32.0399,-84.197
Decatur County,Georgia,30.8783,-84.5791
Jones County,Georgia,33.0251,-83.5605
Monroe County,Georgia,33.0139,-83.9187
White County,Georgia,34.6464,-83.7471
Peach County,Georgia,32.5688,-83.8269
Upson County,Georgia,32.8813,-84.2994
Dawson County,Georgia,34.4443,-84.1706
Toombs County,Georgia,32.1216,-82.3312
Stephens County,Georgia,34.554,-83.2932
Hart County,Georgia,34.3509,-82.9642
Grady County,Georgia,30.8747,-84.2345
Butts County,Georgia,33.2879,-83.9572
Fannin County,Georgia,34.8641,-84.3198
Chattooga County,Georgia,34.475,-85.3453
Union County,Georgia,34.8341,-83.9907
Burke County,Georgia,33.0611,-82.0007
Tattnall County,Georgia,32.0458,-82.0581
Franklin County,Georgia,34.3754,-83.2291
Emanuel County,Georgia,32.5897,-82.3017
Putnam County,Georgia,33.3218,-83.3728
McDuffie County,Georgia,33.4828,-82.4814
Mitchell County,Georgia,31.2253,-84.1943
Worth County,Georgia,31.5515,-83.8509
Meriwether County,Georgia,33.0406,-84.6883
Crisp County,Georgia,31.9229,-83.7681
Morgan County,Georgia,33.5908,-83.4924
Dodge County,Georgia,32.1722,-83.1684
Washington County,Georgia,32.9695,-82.7959
Pierce County,Georgia,31.3588,-82.2128
Elbert County,Georgia,34.1168,-82.8401
Pike County,Georgia,33.0923,-84.3892
Greene County,Georgia,33.5788,-83.1667
Lamar County,Georgia,33.0765,-84.1395
Appling County,Georgia,31.7492,-82.2889
Banks County,Georgia,34.3543,-83.4972
Berrien County,Georgia,31.276,-83.2296
Brantley County,Georgia,31.1969,-81.9819
Cook County,Georgia,31.154,-83.4305
Ben Hill County,Georgia,31.7598,-83.2205
Rabun County,Georgia,34.8818,-83.402
Long County,Georgia,31.7526,-81.7458
Brooks County,Georgia,30.842,-83.5802
Dade County,Georgia,34.8546,-85.5044
Jefferson County,Georgia,33.0549,-82.4182
Oglethorpe County,Georgia,33.8807,-83.0807
Jasper County,Georgia,33.3164,-83.6881
Jeff Davis County,Georgia,31.8056,-82.6368
Screven County,Georgia,32.7506,-81.612
Telfair County,Georgia,31.9298,-82.939
Charlton County,Georgia,30.7817,-82.138
Towns County,Georgia,34.9167,-83.7373
Bleckley County,Georgia,32.4345,-83.3278
Crawford County,Georgia,32.7145,-83.9863
Macon County,Georgia,32.3584,-84.0425
Heard County,Georgia,33.297,-85.1283
Dooly County,Georgia,32.1572,-83.7988
McIntosh County,Georgia,31.4963,-81.4103
Bacon County,Georgia,31.5537,-82.4527
Candler County,Georgia,32.4034,-82.0737
Evans County,Georgia,32.1568,-81.8869
Early County,Georgia,31.3228,-84.9036
Lanier County,Georgia,31.0379,-83.0628
Pulaski County,Georgia,32.2323,-83.476
Wilkes County,Georgia,33.7819,-82.7432
Irwin County,Georgia,31.6022,-83.2764
Chattahoochee County,Georgia,32.347,-84.787
Johnson County,Georgia,32.7015,-82.6601
Seminole County,Georgia,30.9388,-84.8688
Terrell County,Georgia,31.777,-84.437
Turner County,Georgia,31.7164,-83.6241
Wilkinson County,Georgia,32.8024,-83.1712
Wilcox County,Georgia,31.9729,-83.4323
Jenkins County,Georgia,32.7924,-81.9635
Montgomery County,Georgia,32.1734,-82.5348
Hancock County,Georgia,33.2704,-83.0007
Atkinson County,Georgia,31.2971,-82.88
Twiggs County,Georgia,32.6672,-83.4271
Taylor County,Georgia,32.5555,-84.2505
Lincoln County,Georgia,33.7936,-82.4512
Wheeler County,Georgia,32.117,-82.7246
Marion County,Georgia,32.3535,-84.5246
Clinch County,Georgia,30.915,-82.7063
Treutlen County,Georgia,32.4039,-82.5673
Randolph County,Georgia,31.7627,-84.7542
Miller County,Georgia,31.164,-84.7308
Talbot County,Georgia,32.6995,-84.533
Calhoun County,Georgia,31.5292,-84.6245
Warren County,Georgia,33.4089,-82.6768
Stewart County,Georgia,32.0785,-84.8352
Schley County,Georgia,32.2616,-84.3147
Echols County,Georgia,30.7101,-82.894
Glascock County,Georgia,33.2293,-82.6107
Baker County,Georgia,31.3261,-84.4447
Clay County,Georgia,31.6262,-84.9801
Webster County,Georgia,32.0468,-84.5511
Quitman County,Georgia,31.8673,-85.0188
Taliaferro County,Georgia,33.5661,-82.8788
Honolulu County,Hawaii,21.5009,-158.106
Hawaii County,Hawaii,19.5984,-155.5183
Maui County,Hawaii,20.8596,-156.565
Kauai County,Hawaii,22.04,-159.5961
Kalawao County,Hawaii,21.1709,-156.9475
Ada County,Idaho,43.4511,-116.2412
Canyon County,Idaho,43.6251,-116.7093
Kootenai County,Idaho,47.6744,-116.7018
Bonneville County,Idaho,43.3877,-111.6148
Twin Falls County,Idaho,42.356,-114.6672
Bannock County,Idaho,42.6685,-112.2246
Madison County,Idaho,43.7841,-111.6592
Bingham County,Idaho,43.2166,-112.3981
Bonner County,Idaho,48.3,-116.6011
Nez Perce County,Idaho,46.3268,-116.7502
Latah County,Idaho,46.8162,-116.7117
Jefferson County,Idaho,43.8201,-112.3113
Elmore County,Idaho,43.354,-115.4693
Payette County,Idaho,44.0068,-116.7608
Cassia County,Idaho,42.2839,-113.6001
Jerome County,Idaho,42.6899,-114.2639
Blaine County,Idaho,43.4119,-113.9802
Minidoka County,Idaho,42.8543,-113.6375
Gem County,Idaho,44.0615,-116.3975
Idaho County,Idaho,45.8441,-115.4675
Gooding County,Idaho,42.971,-114.8115
Franklin County,Idaho,42.1811,-111.8132
Fremont County,Idaho,44.2288,-111.4819
Shoshone County,Idaho,47.3529,-115.8924
Boundary County,Idaho,48.7669,-116.4629
Owyhee County,Idaho,42.5814,-116.1699
Valley County,Idaho,44.7666,-115.5663
Teton County,Idaho,43.7594,-111.2076
Washington County,Idaho,44.4524,-116.7847
Benewah County,Idaho,47.2175,-116.6587
Clearwater County,Idaho,46.6736,-115.6567
Lemhi County,Idaho,44.9433,-113.9333
Power County,Idaho,42.6937,-112.8407
Boise County,Idaho,43.9891,-115.7303
Caribou County,Idaho,42.7705,-111.5623
Bear Lake County,Idaho,42.2848,-111.3297
Lincoln County,Idaho,43.0024,-114.1383
Oneida County,Idaho,42.195,-112.5394
Adams County,Idaho,44.8896,-116.4538
Custer County,Idaho,44.2411,-114.2817
Lewis County,Idaho,46.237,-116.4263
Butte County,Idaho,43.7229,-113.1721
Camas County,Idaho,43.4633,-114.8058
Clark County,Idaho,44.2839,-112.3512
Cook County,Illinois,41.8401,-87.8168
DuPage County,Illinois,41.852,-88.0856
Lake County,Illinois,42.3233,-88.0037
Will County,Illinois,41.445,-87.9786
Kane County,Illinois,41.9388,-88.4286
McHenry County,Illinois,42.3244,-88.4523
Winnebago County,Illinois,42.3363,-89.1609
Madison County,Illinois,38.8297,-89.9049
St. Clair County,Illinois,38.4703,-89.9284
Champaign County,Illinois,40.1401,-88.1992
Sangamon County,Illinois,39.7582,-89.6589
Peoria County,Illinois,40.788,-89.76
McLean County,Illinois,40.4909,-88.8473
Rock Island County,Illinois,41.4673,-90.5674
Kendall County,Illinois,41.5906,-88.4288
Tazewell County,Illinois,40.5075,-89.5134
LaSalle County,Illinois,41.344,-88.8859
Kankakee County,Illinois,41.1377,-87.8618
Macon County,Illinois,39.86,-88.9616
DeKalb County,Illinois,41.8935,-88.7703
Vermilion County,Illinois,40.1834,-87.7328
Williamson County,Illinois,37.7303,-88.9299
Adams County,Illinois,39.9879,-91.1885
Whiteside County,Illinois,41.7562,-89.9141
Boone County,Illinois,42.3231,-88.8234
Jackson County,Illinois,37.7851,-89.3821
Grundy County,Illinois,41.2851,-88.4185
Ogle County,Illinois,42.0426,-89.3207
Knox County,Illinois,40.9318,-90.2132
Henry County,Illinois,41.3531,-90.1314
Coles County,Illinois,39.5203,-88.2217
Macoupin County,Illinois,39.261,-89.9245
Stephenson County,Illinois,42.3518,-89.6623
Woodford County,Illinois,40.7883,-89.2113
Franklin County,Illinois,37.9923,-88.9242
Marion County,Illinois,38.6496,-88.919
Jefferson County,Illinois,38.3005,-88.924
Clinton County,Illinois,38.6065,-89.4225
Livingston County,Illinois,40.8916,-88.5577
Monroe County,Illinois,38.2785,-90.1773
Effingham County,Illinois,39.0598,-88.5899
Lee County,Illinois,41.7461,-89.3003
Christian County,Illinois,39.5458,-89.2773
Fulton County,Illinois,40.4728,-90.2075
Bureau County,Illinois,41.4041,-89.5287
Morgan County,Illinois,39.7156,-90.2015
Randolph County,Illinois,38.0521,-89.8252
Montgomery County,Illinois,39.231,-89.4789
Logan County,Illinois,40.1245,-89.3675
McDonough County,Illinois,40.4562,-90.6779
Iroquois County,Illinois,40.7473,-87.8243
Saline County,Illinois,37.7531,-88.5407
Jo Daviess County,Illinois,42.3658,-90.2126
Fayette County,Illinois,39.0002,-89.0241
Jersey County,Illinois,39.0855,-90.3565
Shelby County,Illinois,39.3911,-88.8055
Perry County,Illinois,38.0837,-89.367
Douglas County,Illinois,39.7694,-88.2173
Crawford County,Illinois,39.0027,-87.7596
Hancock County,Illinois,40.4038,-91.1647
Union County,Illinois,37.4713,-89.2551
Edgar County,Illinois,39.6786,-87.7456
Warren County,Illinois,40.8488,-90.615
Bond County,Illinois,38.8868,-89.4355
Piatt County,Illinois,40.0103,-88.5911
Wayne County,Illinois,38.4296,-88.4256
Richland County,Illinois,38.7124,-88.0851
Mercer County,Illinois,41.2053,-90.7414
Carroll County,Illinois,42.0687,-89.9343
De Witt County,Illinois,40.1746,-88.9041
Clark County,Illinois,39.3336,-87.7877
Lawrence County,Illinois,38.72,-87.7268
Pike County,Illinois,39.6225,-90.8863
Moultrie County,Illinois,39.6415,-88.6193
Massac County,Illinois,37.2189,-88.7076
White County,Illinois,38.0875,-88.1796
Washington County,Illinois,38.3522,-89.4105
Ford County,Illinois,40.5972,-88.2233
Johnson County,Illinois,37.4597,-88.8809
Clay County,Illinois,38.7542,-88.4902
Mason County,Illinois,40.2396,-89.9168
Cass County,Illinois,39.9735,-90.2474
Menard County,Illinois,40.0274,-89.8022
Greene County,Illinois,39.3562,-90.3905
Marshall County,Illinois,41.0332,-89.3448
Wabash County,Illinois,38.4461,-87.8443
Cumberland County,Illinois,39.2733,-88.2402
Jasper County,Illinois,39.0101,-88.1538
Hamilton County,Illinois,38.0816,-88.5391
Schuyler County,Illinois,40.158,-90.6151
Henderson County,Illinois,40.8181,-90.9251
Brown County,Illinois,39.9618,-90.7504
Edwards County,Illinois,38.4165,-88.0533
Putnam County,Illinois,41.2045,-89.2858
Stark County,Illinois,41.0934,-89.7975
Alexander County,Illinois,37.1915,-89.3375
Pulaski County,Illinois,37.2232,-89.1266
Gallatin County,Illinois,37.7628,-88.2305
Scott County,Illinois,39.6441,-90.4747
Calhoun County,Illinois,39.1693,-90.6676
Pope County,Illinois,37.4127,-88.5615
Hardin County,Illinois,37.5182,-88.2668
Marion County,Indiana,39.7817,-86.1385
Lake County,Indiana,41.4167,-87.3821
Allen County,Indiana,41.0909,-85.0666
Hamilton County,Indiana,40.0725,-86.052
St. Joseph County,Indiana,41.6167,-86.2899
Elkhart County,Indiana,41.5974,-85.8587
Tippecanoe County,Indiana,40.3886,-86.8941
Vanderburgh County,Indiana,38.0249,-87.5859
Hendricks County,Indiana,39.7695,-86.51
Porter County,Indiana,41.4603,-87.0672
Johnson County,Indiana,39.49,-86.1016
Monroe County,Indiana,39.1609,-86.5231
Madison County,Indiana,40.1616,-85.7194
Clark County,Indiana,38.4772,-85.7073
LaPorte County,Indiana,41.546,-86.74
Delaware County,Indiana,40.2275,-85.3969
Vigo County,Indiana,39.4306,-87.39
Howard County,Indiana,40.4836,-86.1169
Bartholomew County,Indiana,39.206,-85.8976
Kosciusko County,Indiana,41.2441,-85.8607
Floyd County,Indiana,38.3188,-85.907
Hancock County,Indiana,39.8236,-85.7733
Morgan County,Indiana,39.4816,-86.4462
Boone County,Indiana,40.0508,-86.4687
Grant County,Indiana,40.5158,-85.6547
Wayne County,Indiana,39.8644,-85.0098
Warrick County,Indiana,38.0922,-87.2721
Dearborn County,Indiana,39.1452,-84.9732
Henry County,Indiana,39.9311,-85.3964
Noble County,Indiana,41.3986,-85.4175
Jackson County,Indiana,38.9064,-86.0375
Marshall County,Indiana,41.3248,-86.2618
Lawrence County,Indiana,38.8412,-86.4835
Shelby County,Indiana,39.5237,-85.7917
Dubois County,Indiana,38.3643,-86.8798
DeKalb County,Indiana,41.3976,-84.9991
LaGrange County,Indiana,41.6426,-85.4265
Harrison County,Indiana,38.1951,-86.1114
Montgomery County,Indiana,40.0404,-86.8933
Cass County,Indiana,40.7615,-86.346
Putnam County,Indiana,39.6663,-86.845
Huntington County,Indiana,40.8292,-85.4881
Knox County,Indiana,38.6891,-87.418
Miami County,Indiana,40.7695,-86.045
Adams County,Indiana,40.7457,-84.9366
Steuben County,Indiana,41.6439,-85.0009
Whitley County,Indiana,41.1394,-85.5051
Daviess County,Indiana,38.7024,-87.072
Jefferson County,Indiana,38.7858,-85.4386
Jasper County,Indiana,41.023,-87.1161
Clinton County,Indiana,40.3017,-86.4751
Gibson County,Indiana,38.3119,-87.5846
Wabash County,Indiana,40.8457,-85.794
Greene County,Indiana,39.0364,-86.9621
Ripley County,Indiana,39.1035,-85.2624
Wells County,Indiana,40.7293,-85.2212
Washington County,Indiana,38.6,-86.1053
Jennings County,Indiana,38.9969,-85.628
Decatur County,Indiana,39.307,-85.5011
Clay County,Indiana,39.3928,-87.1158
Posey County,Indiana,38.0218,-87.8685
White County,Indiana,40.7498,-86.8655
Randolph County,Indiana,40.1576,-85.0114
Scott County,Indiana,38.6851,-85.7475
Fayette County,Indiana,39.64,-85.1788
Starke County,Indiana,41.2809,-86.6476
Franklin County,Indiana,39.4149,-85.0602
Owen County,Indiana,39.3128,-86.8377
Sullivan County,Indiana,39.0888,-87.4147
Jay County,Indiana,40.438,-85.0057
Fulton County,Indiana,41.047,-86.2635
Carroll County,Indiana,40.5828,-86.5635
Spencer County,Indiana,38.0141,-87.0077
Orange County,Indiana,38.5418,-86.4951
Perry County,Indiana,38.0797,-86.638
Rush County,Indiana,39.62,-85.4658
Fountain County,Indiana,40.1209,-87.242
Parke County,Indiana,39.7736,-87.2064
Brown County,Indiana,39.1962,-86.2274
Vermillion County,Indiana,39.8538,-87.464
Tipton County,Indiana,40.3113,-86.0519
Newton County,Indiana,40.9558,-87.3976
Pulaski County,Indiana,41.0419,-86.6988
Pike County,Indiana,38.3988,-87.2322
Blackford County,Indiana,40.4737,-85.3248
Crawford County,Indiana,38.2924,-86.4517
Switzerland County,Indiana,38.8262,-85.037
Martin County,Indiana,38.708,-86.8031
Benton County,Indiana,40.6063,-87.3109
Warren County,Indiana,40.3469,-87.3533
Union County,Indiana,39.6256,-84.9251
Ohio County,Indiana,38.9501,-84.9652
Polk County,Iowa,41.6854,-93.5734
Linn County,Iowa,42.079,-91.599
Scott County,Iowa,41.6371,-90.6232
Johnson County,Iowa,41.6715,-91.5881
Black Hawk County,Iowa,42.4701,-92.3088
Woodbury County,Iowa,42.3897,-96.0448
Dallas County,Iowa,41.6849,-94.0398
Dubuque County,Iowa,42.4688,-90.8825
Story County,Iowa,42.0362,-93.465
Pottawattamie County,Iowa,41.3366,-95.5423
Warren County,Iowa,41.3343,-93.5615
Clinton County,Iowa,41.898,-90.532
Cerro Gordo County,Iowa,43.0816,-93.2608
Muscatine County,Iowa,41.4839,-91.1127
Marshall County,Iowa,42.0358,-92.9988
Des Moines County,Iowa,40.9232,-91.1815
Jasper County,Iowa,41.686,-93.0538
Webster County,Iowa,42.4279,-94.1818
Sioux County,Iowa,43.0826,-96.1779
Wapello County,Iowa,41.0306,-92.4095
Marion County,Iowa,41.3344,-93.0994
Lee County,Iowa,40.642,-91.4793
Boone County,Iowa,42.0365,-93.9316
Benton County,Iowa,42.0802,-92.0657
Plymouth County,Iowa,42.7378,-96.2141
Bremer County,Iowa,42.7746,-92.3181
Washington County,Iowa,41.3356,-91.7179
Mahaska County,Iowa,41.3352,-92.6409
Jones County,Iowa,42.1212,-91.1315
Carroll County,Iowa,42.0362,-94.8605
Buena Vista County,Iowa,42.7355,-95.1511
Buchanan County,Iowa,42.4708,-91.8379
Henry County,Iowa,40.988,-91.5445
Winneshiek County,Iowa,43.2907,-91.8437
Fayette County,Iowa,42.8626,-91.8444
Jackson County,Iowa,42.1717,-90.5743
Poweshiek County,Iowa,41.6864,-92.5315
Cedar County,Iowa,41.7723,-91.1324
Dickinson County,Iowa,43.378,-95.1508
Delaware County,Iowa,42.4712,-91.3673
Clayton County,Iowa,42.8447,-91.3414
Tama County,Iowa,42.0798,-92.5326
Hardin County,Iowa,42.3839,-93.2404
Madison County,Iowa,41.3307,-94.0155
Iowa County,Iowa,41.6863,-92.0655
Crawford County,Iowa,42.0372,-95.382
Clay County,Iowa,43.0826,-95.1509
Jefferson County,Iowa,41.0318,-91.9489
Floyd County,Iowa,43.0599,-92.789
Page County,Iowa,40.7391,-95.1502
Hamilton County,Iowa,42.3838,-93.7068
Kossuth County,Iowa,43.2041,-94.2067
Harrison County,Iowa,41.6829,-95.8168
Mills County,Iowa,41.0334,-95.6213
Butler County,Iowa,42.7316,-92.7902
O'Brien County,Iowa,43.0838,-95.6249
Allamakee County,Iowa,43.2843,-91.3781
Cass County,Iowa,41.3315,-94.9278
Wright County,Iowa,42.7331,-93.7352
Grundy County,Iowa,42.4019,-92.7914
Appanoose County,Iowa,40.7432,-92.8686
Union County,Iowa,41.0277,-94.2424
Lyon County,Iowa,43.3805,-96.2102
Chickasaw County,Iowa,43.0601,-92.3177
Shelby County,Iowa,41.6851,-95.3102
Cherokee County,Iowa,42.7356,-95.6238
Louisa County,Iowa,41.2185,-91.2596
Hancock County,Iowa,43.0819,-93.7343
Winnebago County,Iowa,43.3776,-93.7342
Guthrie County,Iowa,41.6837,-94.5011
Mitchell County,Iowa,43.3564,-92.789
Montgomery County,Iowa,41.0301,-95.1564
Keokuk County,Iowa,41.3365,-92.1786
Franklin County,Iowa,42.7325,-93.2625
Calhoun County,Iowa,42.3852,-94.6404
Sac County,Iowa,42.3862,-95.1054
Clarke County,Iowa,41.029,-93.7852
Humboldt County,Iowa,42.7765,-94.2072
Howard County,Iowa,43.3568,-92.3172
Emmet County,Iowa,43.3781,-94.6785
Davis County,Iowa,40.7477,-92.4097
Palo Alto County,Iowa,43.0821,-94.6781
Greene County,Iowa,42.0363,-94.3968
Monona County,Iowa,42.0516,-95.9599
Lucas County,Iowa,41.0294,-93.3277
Decatur County,Iowa,40.7377,-93.7863
Monroe County,Iowa,41.0298,-92.869
Adair County,Iowa,41.3307,-94.471
Worth County,Iowa,43.3774,-93.2608
Van Buren County,Iowa,40.7532,-91.95
Pocahontas County,Iowa,42.7342,-94.6787
Ida County,Iowa,42.3869,-95.5135
Fremont County,Iowa,40.7456,-95.6047
Wayne County,Iowa,40.7395,-93.3274
Osceola County,Iowa,43.3786,-95.6237
Taylor County,Iowa,40.7374,-94.6964
Audubon County,Iowa,41.6846,-94.9058
Ringgold County,Iowa,40.7352,-94.244
Adams County,Iowa,41.029,-94.6992
Johnson County,Kansas,38.8838,-94.8223
Sedgwick County,Kansas,37.6848,-97.461
Shawnee County,Kansas,39.0415,-95.7565
Wyandotte County,Kansas,39.1146,-94.7646
Douglas County,Kansas,38.8847,-95.2926
Leavenworth County,Kansas,39.1993,-95.038
Riley County,Kansas,39.2966,-96.7352
Butler County,Kansas,37.7812,-96.839
Reno County,Kansas,37.953,-98.086
Saline County,Kansas,38.7838,-97.65
Crawford County,Kansas,37.5073,-94.8518
Finney County,Kansas,38.0443,-100.737
Geary County,Kansas,39.0024,-96.7525
Cowley County,Kansas,37.2377,-96.8375
Miami County,Kansas,38.5635,-94.8381
Ford County,Kansas,37.6917,-99.888
Harvey County,Kansas,38.0432,-97.4272
Lyon County,Kansas,38.4562,-96.1526
Montgomery County,Kansas,37.1925,-95.7429
McPherson County,Kansas,38.3917,-97.648
Ellis County,Kansas,38.9147,-99.3173
Franklin County,Kansas,38.5645,-95.2859
Pottawatomie County,Kansas,39.379,-96.3424
Barton County,Kansas,38.479,-98.7565
Sumner County,Kansas,37.2373,-97.4765
Seward County,Kansas,37.1933,-100.8513
Labette County,Kansas,37.1913,-95.2976
Cherokee County,Kansas,37.1693,-94.8463
Dickinson County,Kansas,38.8665,-97.1527
Jefferson County,Kansas,39.2358,-95.3834
Atchison County,Kansas,39.5317,-95.3135
Neosho County,Kansas,37.5585,-95.3068
Osage County,Kansas,38.6523,-95.7269
Bourbon County,Kansas,37.8552,-94.8493
Jackson County,Kansas,39.4168,-95.7937
Allen County,Kansas,37.8857,-95.3014
Marion County,Kansas,38.3589,-97.0969
Nemaha County,Kansas,39.7834,-96.0141
Marshall County,Kansas,39.7836,-96.5229
Linn County,Kansas,38.2123,-94.843
Brown County,Kansas,39.8265,-95.5642
Rice County,Kansas,38.3472,-98.201
Pratt County,Kansas,37.6477,-98.7396
Cloud County,Kansas,39.4803,-97.6493
Wilson County,Kansas,37.5593,-95.7434
Coffey County,Kansas,38.2369,-95.7341
Clay County,Kansas,39.3497,-97.1652
Thomas County,Kansas,39.3509,-101.0556
Anderson County,Kansas,38.2142,-95.2933
Doniphan County,Kansas,39.7881,-95.1468
Kingman County,Kansas,37.5589,-98.1363
Grant County,Kansas,37.5623,-101.308
Wabaunsee County,Kansas,38.9533,-96.205
Russell County,Kansas,38.9148,-98.7624
Ellsworth County,Kansas,38.6966,-98.2048
Pawnee County,Kansas,38.1813,-99.2367
Greenwood County,Kansas,37.8778,-96.2326
Sherman County,Kansas,39.3514,-101.72
Mitchell County,Kansas,39.3933,-98.2094
Ottawa County,Kansas,39.1325,-97.6502
Gray County,Kansas,37.7382,-100.4379
Washington County,Kansas,39.7842,-97.0875
Harper County,Kansas,37.1916,-98.0755
Norton County,Kansas,39.7844,-99.9035
Morris County,Kansas,38.6874,-96.6499
Stevens County,Kansas,37.1923,-101.3121
Scott County,Kansas,38.4822,-100.9069
Phillips County,Kansas,39.7846,-99.347
Rooks County,Kansas,39.3502,-99.325
Republic County,Kansas,39.8278,-97.6506
Barber County,Kansas,37.2289,-98.6848
Stafford County,Kansas,38.031,-98.7174
Meade County,Kansas,37.2382,-100.3662
Kearny County,Kansas,38.0003,-101.3199
Haskell County,Kansas,37.5622,-100.8712
Smith County,Kansas,39.7852,-98.7855
Osborne County,Kansas,39.3503,-98.7679
Chautauqua County,Kansas,37.15,-96.2454
Woodson County,Kansas,37.8867,-95.7401
Rush County,Kansas,38.5231,-99.3092
Lincoln County,Kansas,39.0453,-98.2077
Jewell County,Kansas,39.7847,-98.2183
Edwards County,Kansas,37.8876,-99.3122
Trego County,Kansas,38.9143,-99.8728
Decatur County,Kansas,39.7847,-100.4599
Gove County,Kansas,38.9161,-100.483
Logan County,Kansas,38.9173,-101.1484
Morton County,Kansas,37.1914,-101.7992
Ness County,Kansas,38.4794,-99.9162
Cheyenne County,Kansas,39.7859,-101.7319
Chase County,Kansas,38.302,-96.594
Rawlins County,Kansas,39.7852,-101.0765
Hamilton County,Kansas,37.9991,-101.7912
Elk County,Kansas,37.4537,-96.2441
Sheridan County,Kansas,39.3504,-100.4418
Kiowa County,Kansas,37.5582,-99.2861
Graham County,Kansas,39.3497,-99.8832
Wichita County,Kansas,38.4821,-101.3474
Stanton County,Kansas,37.563,-101.7842
Clark County,Kansas,37.2355,-99.8203
Comanche County,Kansas,37.1913,-99.2719
Hodgeman County,Kansas,38.0875,-99.8979
Lane County,Kansas,38.4813,-100.4664
Wallace County,Kansas,38.9167,-101.7636
Greeley County,Kansas,38.4806,-101.806
Jefferson County,Kentucky,38.1872,-85.6591
Fayette County,Kentucky,38.0423,-84.4587
Kenton County,Kentucky,38.9334,-84.5333
Boone County,Kentucky,38.9699,-84.7278
Warren County,Kentucky,36.9936,-86.4238
Hardin County,Kentucky,37.6979,-85.9634
Daviess County,Kentucky,37.7318,-87.0873
Campbell County,Kentucky,38.9465,-84.3795
Madison County,Kentucky,37.7202,-84.278
Bullitt County,Kentucky,37.9701,-85.6959
Christian County,Kentucky,36.8941,-87.4904
Oldham County,Kentucky,38.3994,-85.4483
McCracken County,Kentucky,37.054,-88.7128
Pulaski County,Kentucky,37.1039,-84.5772
Laurel County,Kentucky,37.1107,-84.1178
Pike County,Kentucky,37.4691,-82.3958
Scott County,Kentucky,38.2916,-84.5839
Jessamine County,Kentucky,37.872,-84.5809
Franklin County,Kentucky,38.2391,-84.8771
Boyd County,Kentucky,38.3596,-82.6878
Shelby County,Kentucky,38.2155,-85.1948
Nelson County,Kentucky,37.8052,-85.466
Hopkins County,Kentucky,37.3088,-87.5408
Henderson County,Kentucky,37.7958,-87.5729
Barren County,Kentucky,36.9656,-85.9337
Calloway County,Kentucky,36.621,-88.2723
Clark County,Kentucky,37.9708,-84.1474
Graves County,Kentucky,36.7231,-88.6512
Whitley County,Kentucky,36.7581,-84.1452
Greenup County,Kentucky,38.5457,-82.9223
Floyd County,Kentucky,37.5571,-82.7457
Marshall County,Kentucky,36.8835,-88.3294
Muhlenberg County,Kentucky,37.2158,-87.142
Boyle County,Kentucky,37.6244,-84.8668
Knox County,Kentucky,36.8906,-83.854
Meade County,Kentucky,37.9698,-86.217
Montgomery County,Kentucky,38.0335,-83.9131
Perry County,Kentucky,37.2443,-83.2215
Logan County,Kentucky,36.8597,-86.8789
Woodford County,Kentucky,38.0424,-84.7436
Carter County,Kentucky,38.3182,-83.0495
Harlan County,Kentucky,36.8569,-83.218
Grayson County,Kentucky,37.4608,-86.3439
Taylor County,Kentucky,37.3665,-85.3279
Grant County,Kentucky,38.6488,-84.6246
Rowan County,Kentucky,38.1963,-83.4211
Lincoln County,Kentucky,37.4554,-84.6608
Bell County,Kentucky,36.7306,-83.6741
Anderson County,Kentucky,38.0039,-84.991
Ohio County,Kentucky,37.4782,-86.8489
Mercer County,Kentucky,37.811,-84.8745
Johnson County,Kentucky,37.8466,-82.8315
Letcher County,Kentucky,37.1212,-82.8553
Allen County,Kentucky,36.7513,-86.1904
Breckinridge County,Kentucky,37.7733,-86.4293
Clay County,Kentucky,37.1597,-83.7146
Bourbon County,Kentucky,38.2067,-84.2172
Wayne County,Kentucky,36.8013,-84.8286
Marion County,Kentucky,37.5525,-85.2696
Simpson County,Kentucky,36.742,-86.5823
Spencer County,Kentucky,38.0325,-85.3278
Hart County,Kentucky,37.2999,-85.8847
Adair County,Kentucky,37.1042,-85.2806
Harrison County,Kentucky,38.4418,-84.3314
Russell County,Kentucky,36.9911,-85.0587
Garrard County,Kentucky,37.6396,-84.5377
Mason County,Kentucky,38.5952,-83.8242
McCreary County,Kentucky,36.7371,-84.4842
Lawrence County,Kentucky,38.0679,-82.7348
Rockcastle County,Kentucky,37.3652,-84.316
Casey County,Kentucky,37.3223,-84.9283
Henry County,Kentucky,38.4485,-85.1189
Fleming County,Kentucky,38.3701,-83.6966
Larue County,Kentucky,37.5458,-85.6979
Pendleton County,Kentucky,38.6956,-84.3603
Knott County,Kentucky,37.354,-82.9541
Trigg County,Kentucky,36.8064,-87.8733
Estill County,Kentucky,37.6924,-83.9643
Morgan County,Kentucky,37.9223,-83.2589
Breathitt County,Kentucky,37.5216,-83.3241
Union County,Kentucky,37.6584,-87.9454
Powell County,Kentucky,37.8311,-83.8237
Lewis County,Kentucky,38.5315,-83.378
Jackson County,Kentucky,37.4198,-84.0058
Webster County,Kentucky,37.5184,-87.6832
Bath County,Kentucky,38.145,-83.7427
Caldwell County,Kentucky,37.1454,-87.8679
Butler County,Kentucky,37.2073,-86.6816
Todd County,Kentucky,36.8357,-87.1792
Edmonson County,Kentucky,37.2088,-86.2384
Washington County,Kentucky,37.7534,-85.1748
Magoffin County,Kentucky,37.7065,-83.0649
Monroe County,Kentucky,36.7122,-85.7165
Martin County,Kentucky,37.8016,-82.5132
Owen County,Kentucky,38.5197,-84.8281
Green County,Kentucky,37.264,-85.5531
Carroll County,Kentucky,38.6678,-85.1236
Leslie County,Kentucky,37.0941,-83.3811
Metcalfe County,Kentucky,36.9905,-85.6292
Clinton County,Kentucky,36.7274,-85.1362
McLean County,Kentucky,37.5292,-87.2636
Hancock County,Kentucky,37.8415,-86.7779
Livingston County,Kentucky,37.2096,-88.3537
Crittenden County,Kentucky,37.3527,-88.0972
Lyon County,Kentucky,37.0191,-88.0832
Gallatin County,Kentucky,38.7569,-84.8593
Trimble County,Kentucky,38.613,-85.3375
Bracken County,Kentucky,38.6888,-84.0901
Ballard County,Kentucky,37.0585,-88.9995
Nicholas County,Kentucky,38.3356,-84.0153
Elliott County,Kentucky,38.1179,-83.0976
Lee County,Kentucky,37.5948,-83.7162
Wolfe County,Kentucky,37.7393,-83.4932
Fulton County,Kentucky,36.554,-89.1873
Menifee County,Kentucky,37.9414,-83.5989
Cumberland County,Kentucky,36.7866,-85.3885
Carlisle County,Kentucky,36.8532,-88.971
Hickman County,Kentucky,36.6781,-88.9762
Owsley County,Kentucky,37.4192,-83.6831
Robertson County,Kentucky,38.5188,-84.052
East Baton Rouge Parish,Louisiana,30.5383,-91.0956
Jefferson Parish,Louisiana,29.7882,-90.1276
Orleans Parish,Louisiana,30.0687,-89.9289
St. Tammany Parish,Louisiana,30.4103,-89.9584
Lafayette Parish,Louisiana,30.2068,-92.0639
Caddo Parish,Louisiana,32.5806,-93.8823
Calcasieu Parish,Louisiana,30.2293,-93.3581
Ouachita Parish,Louisiana,32.4784,-92.1549
Livingston Parish,Louisiana,30.4401,-90.7279
Tangipahoa Parish,Louisiana,30.6266,-90.4057
Rapides Parish,Louisiana,31.1986,-92.5332
Bossier Parish,Louisiana,32.6784,-93.6049
Ascension Parish,Louisiana,30.2036,-90.9113
Terrebonne Parish,Louisiana,29.4148,-90.8663
Lafourche Parish,Louisiana,29.5662,-90.4256
St. Landry Parish,Louisiana,30.5989,-92.0058
Iberia Parish,Louisiana,29.8967,-91.7308
Acadia Parish,Louisiana,30.2906,-92.412
Vermilion Parish,Louisiana,29.8465,-92.3242
St. Charles Parish,Louisiana,29.9055,-90.3582
St. Martin Parish,Louisiana,30.1291,-91.6083
St. Mary Parish,Louisiana,29.7207,-91.4486
Vernon Parish,Louisiana,31.1083,-93.1843
Lincoln Parish,Louisiana,32.6016,-92.6649
Washington Parish,Louisiana,30.8533,-90.0405
St. Bernard Parish,Louisiana,29.8691,-89.5549
St. John the Baptist Parish,Louisiana,30.1264,-90.4709
Avoyelles Parish,Louisiana,31.0763,-92.0014
Natchitoches Parish,Louisiana,31.7234,-93.0962
Webster Parish,Louisiana,32.7135,-93.335
Beauregard Parish,Louisiana,30.6486,-93.3432
Evangeline Parish,Louisiana,30.7289,-92.406
Jefferson Davis Parish,Louisiana,30.2677,-92.8141
Iberville Parish,Louisiana,30.2586,-91.3495
West Baton Rouge Parish,Louisiana,30.4636,-91.3127
De Soto Parish,Louisiana,32.0554,-93.7373
Morehouse Parish,Louisiana,32.8202,-91.8018
Plaquemines Parish,Louisiana,29.4406,-89.61
Allen Parish,Louisiana,30.653,-92.828
Sabine Parish,Louisiana,31.564,-93.5547
Grant Parish,Louisiana,31.5997,-92.5595
Assumption Parish,Louisiana,29.9024,-91.0608
Union Parish,Louisiana,32.8318,-92.3748
Pointe Coupee Parish,Louisiana,30.7095,-91.6008
St. James Parish,Louisiana,30.027,-90.7931
Richland Parish,Louisiana,32.4178,-91.7635
Franklin Parish,Louisiana,32.1333,-91.6738
East Feliciana Parish,Louisiana,30.8451,-91.0455
Concordia Parish,Louisiana,31.4459,-91.6401
West Feliciana Parish,Louisiana,30.8798,-91.42
Jackson Parish,Louisiana,32.302,-92.5578
LaSalle Parish,Louisiana,31.6769,-92.1605
Claiborne Parish,Louisiana,32.8227,-92.9958
Winn Parish,Louisiana,31.9442,-92.6369
Bienville Parish,Louisiana,32.3473,-93.0561
St. Helena Parish,Louisiana,30.8219,-90.7103
Madison Parish,Louisiana,32.3644,-91.2427
West Carroll Parish,Louisiana,32.7885,-91.4568
Caldwell Parish,Louisiana,32.0925,-92.1166
Catahoula Parish,Louisiana,31.6662,-91.847
Red River Parish,Louisiana,32.0931,-93.3398
East Carroll Parish,Louisiana,32.7325,-91.235
Cameron Parish,Louisiana,29.8754,-93.1937
Tensas Parish,Louisiana,32.0018,-91.3401
Cumberland County,Maine,43.8466,-70.3996
York County,Maine,43.4782,-70.7144
Penobscot County,Maine,45.4006,-68.6495
Kennebec County,Maine,44.4091,-69.7673
Androscoggin County,Maine,44.1658,-70.2065
Aroostook County,Maine,46.6589,-68.5989
Oxford County,Maine,44.4999,-70.7566
Hancock County,Maine,44.6648,-68.3583
Somerset County,Maine,45.5139,-69.9589
Knox County,Maine,44.141,-69.1686
Waldo County,Maine,44.5028,-69.1454
Sagadahoc County,Maine,43.9598,-69.8546
Lincoln County,Maine,44.0665,-69.5434
Washington County,Maine,45.0307,-67.6287
Franklin County,Maine,44.974,-70.444
Piscataquis County,Maine,45.8373,-69.2846
Montgomery County,Maryland,39.1363,-77.2042
Prince George's County,Maryland,38.8295,-76.8473
Baltimore County,Maryland,39.4627,-76.6393
Anne Arundel County,Maryland,39.0065,-76.6051
Baltimore City,Maryland,39.3051,-76.6144
Howard County,Maryland,39.2507,-76.9312
Frederick County,Maryland,39.4722,-77.398
Harford County,Maryland,39.5611,-76.3171
Carroll County,Maryland,39.5629,-77.0225
Charles County,Maryland,38.5073,-76.9922
Washington County,Maryland,39.6036,-77.814
St. Mary's County,Maryland,38.3024,-76.6058
Cecil County,Maryland,39.5712,-75.9407
Wicomico County,Maryland,38.3733,-75.6208
Calvert County,Maryland,38.5434,-76.5687
Allegany County,Maryland,39.6214,-78.6976
Worcester County,Maryland,38.2128,-75.334
Queen Anne's County,Maryland,39.068,-76.0202
Talbot County,Maryland,38.7714,-76.0971
Caroline County,Maryland,38.8717,-75.8316
Dorchester County,Maryland,38.4829,-76.0125
Garrett County,Maryland,39.5289,-79.2729
Somerset County,Maryland,38.1158,-75.7518
Kent County,Maryland,39.2545,-76.04
Middlesex County,Massachusetts,42.4856,-71.3918
Worcester County,Massachusetts,42.3514,-71.9077
Essex County,Massachusetts,42.6732,-70.9524
Suffolk County,Massachusetts,42.3328,-71.0735
Norfolk County,Massachusetts,42.1603,-71.2118
Bristol County,Massachusetts,41.7972,-71.1144
Plymouth County,Massachusetts,41.9511,-70.8115
Hampden County,Massachusetts,42.1351,-72.6316
Barnstable County,Massachusetts,41.7244,-70.2903
Hampshire County,Massachusetts,42.3402,-72.6638
Berkshire County,Massachusetts,42.3707,-73.2063
Franklin County,Massachusetts,42.5831,-72.5918
Dukes County,Massachusetts,41.3961,-70.65
Nantucket County,Massachusetts,41.2831,-70.0692
Wayne County,Michigan,42.2822,-83.283
Oakland County,Michigan,42.6604,-83.3858
Macomb County,Michigan,42.6957,-82.9323
Kent County,Michigan,43.0322,-85.5493
Genesee County,Michigan,43.0217,-83.7067
Washtenaw County,Michigan,42.2532,-83.8388
Ottawa County,Michigan,42.9599,-85.996
Ingham County,Michigan,42.5971,-84.3735
Kalamazoo County,Michigan,42.2455,-85.5312
Livingston County,Michigan,42.6029,-83.9115
Saginaw County,Michigan,43.335,-84.0532
Muskegon County,Michigan,43.2912,-86.152
Jackson County,Michigan,42.2485,-84.4234
St. Clair County,Michigan,42.9341,-82.6806
Monroe County,Michigan,41.9291,-83.5394
Berrien County,Michigan,41.9547,-86.4123
Calhoun County,Michigan,42.2465,-85.0056
Allegan County,Michigan,42.5913,-85.8884
Eaton County,Michigan,42.5961,-84.8383
Bay County,Michigan,43.7075,-83.9924
Lenawee County,Michigan,41.8951,-84.0664
Grand Traverse County,Michigan,44.6687,-85.5605
Lapeer County,Michigan,43.0901,-83.2218
Midland County,Michigan,43.6468,-84.3881
Clinton County,Michigan,42.9437,-84.6015
Van Buren County,Michigan,42.2513,-86.0188
Shiawassee County,Michigan,42.9537,-84.1467
Montcalm County,Michigan,43.311,-85.1525
Ionia County,Michigan,42.9451,-85.0746
Marquette County,Michigan,46.4313,-87.6416
Isabella County,Michigan,43.6406,-84.8468
Barry County,Michigan,42.595,-85.309
St. Joseph County,Michigan,41.9144,-85.5278
Tuscola County,Michigan,43.4641,-83.4167
Cass County,Michigan,41.9154,-85.9935
Newaygo County,Michigan,43.5542,-85.8009
Hillsdale County,Michigan,41.8878,-84.5929
Branch County,Michigan,41.9161,-85.059
Gratiot County,Michigan,43.2927,-84.6049
Sanilac County,Michigan,43.4236,-82.8203
Mecosta County,Michigan,43.6408,-85.3246
Houghton County,Michigan,46.8976,-88.6875
Delta County,Michigan,45.9193,-86.9241
Chippewa County,Michigan,46.3053,-84.578
Emmet County,Michigan,45.5202,-84.8904
Wexford County,Michigan,44.3383,-85.5785
Huron County,Michigan,43.8333,-83.019
Clare County,Michigan,43.9879,-84.8478
Mason County,Michigan,43.9952,-86.25
Alpena County,Michigan,45.0348,-83.6282
Oceana County,Michigan,43.641,-86.2675
Charlevoix County,Michigan,45.2995,-85.124
Dickinson County,Michigan,46.0092,-87.8703
Cheboygan County,Michigan,45.4463,-84.4999
Gladwin County,Michigan,43.9907,-84.3883
Iosco County,Michigan,44.3559,-83.6359
Otsego County,Michigan,45.0214,-84.599
Manistee County,Michigan,44.333,-86.0568
Antrim County,Michigan,44.9991,-85.1402
Roscommon County,Michigan,44.3356,-84.6116
Menominee County,Michigan,45.5801,-87.5566
Osceola County,Michigan,43.9898,-85.3252
Leelanau County,Michigan,44.9385,-85.812
Ogemaw County,Michigan,44.335,-84.1264
Benzie County,Michigan,44.6387,-86.0155
Kalkaska County,Michigan,44.6847,-85.0902
Missaukee County,Michigan,44.3374,-85.0947
Arenac County,Michigan,44.0655,-83.8952
Gogebic County,Michigan,46.4087,-89.6943
Crawford County,Michigan,44.6837,-84.6103
Presque Isle County,Michigan,45.3401,-83.918
Lake County,Michigan,43.9901,-85.8016
Iron County,Michigan,46.2087,-88.5305
Mackinac County,Michigan,46.0805,-85.0872
Alcona County,Michigan,44.6854,-83.5938
Montmorency County,Michigan,45.0276,-84.1272
Alger County,Michigan,46.4086,-86.604
Oscoda County,Michigan,44.6818,-84.1298
Baraga County,Michigan,46.6626,-88.3652
Schoolcraft County,Michigan,46.1966,-86.1996
Ontonagon County,Michigan,46.6644,-89.3148
Luce County,Michigan,46.4706,-85.5444
Keweenaw County,Michigan,47.6279,-88.4346
Hennepin County,Minnesota,45.0046,-93.477
Ramsey County,Minnesota,45.0171,-93.0996
Dakota County,Minnesota,44.6719,-93.0654
Anoka County,Minnesota,45.2733,-93.2465
Washington County,Minnesota,45.0388,-92.8838
St. Louis County,Minnesota,47.6031,-92.4707
Olmsted County,Minnesota,44.0038,-92.4018
Stearns County,Minnesota,45.5521,-94.613
Scott County,Minnesota,44.6485,-93.5359
Wright County,Minnesota,45.1739,-93.9631
Carver County,Minnesota,44.8207,-93.8026
Sherburne County,Minnesota,45.444,-93.7746
Blue Earth County,Minnesota,44.0346,-94.067
Rice County,Minnesota,44.3543,-93.2967
Crow Wing County,Minnesota,46.4824,-94.0709
Clay County,Minnesota,46.8923,-96.4906
Otter Tail County,Minnesota,46.4088,-95.708
Chisago County,Minnesota,45.5025,-92.9083
Winona County,Minnesota,43.9869,-91.7792
Goodhue County,Minnesota,44.4097,-92.7229
Beltrami County,Minnesota,47.9738,-94.9377
Itasca County,Minnesota,47.5095,-93.6319
Kandiyohi County,Minnesota,45.1524,-95.0047
Benton County,Minnesota,45.6991,-93.9988
Isanti County,Minnesota,45.5615,-93.2951
Mower County,Minnesota,43.6715,-92.7525
Douglas County,Minnesota,45.9338,-95.4535
Steele County,Minnesota,44.0223,-93.2261
McLeod County,Minnesota,44.8236,-94.2724
Carlton County,Minnesota,46.5924,-92.677
Becker County,Minnesota,46.9346,-95.674
Nicollet County,Minnesota,44.3499,-94.2475
Morrison County,Minnesota,46.0126,-94.2684
Polk County,Minnesota,47.7739,-96.4019
Freeborn County,Minnesota,43.6738,-93.3488
Cass County,Minnesota,46.9496,-94.3254
Pine County,Minnesota,46.1208,-92.7413
Le Sueur County,Minnesota,44.3714,-93.7301
Mille Lacs County,Minnesota,45.938,-93.6301
Brown County,Minnesota,44.2421,-94.7276
Lyon County,Minnesota,44.4135,-95.839
Todd County,Minnesota,46.0706,-94.8976
Meeker County,Minnesota,45.1231,-94.5274
Nobles County,Minnesota,43.6742,-95.7534
Hubbard County,Minnesota,47.1086,-94.9166
Wabasha County,Minnesota,44.2843,-92.2303
Fillmore County,Minnesota,43.674,-92.0902
Dodge County,Minnesota,44.0226,-92.8621
Martin County,Minnesota,43.6744,-94.5511
Waseca County,Minnesota,44.0221,-93.5873
Houston County,Minnesota,43.6714,-91.4929
Kanabec County,Minnesota,45.9452,-93.2934
Aitkin County,Minnesota,46.6082,-93.4155
Redwood County,Minnesota,44.4037,-95.2538
Roseau County,Minnesota,48.7751,-95.8108
Sibley County,Minnesota,44.5795,-94.2321
Renville County,Minnesota,44.7268,-94.9471
Wadena County,Minnesota,46.5858,-94.9694
Pennington County,Minnesota,48.0662,-96.0367
Faribault County,Minnesota,43.6739,-93.948
Chippewa County,Minnesota,45.0223,-95.5667
Koochiching County,Minnesota,48.2453,-93.7834
Cottonwood County,Minnesota,44.0071,-95.1812
Pope County,Minnesota,45.586,-95.4445
Watonwan County,Minnesota,43.9784,-94.6141
Lake County,Minnesota,47.6411,-91.4458
Jackson County,Minnesota,43.6742,-95.1541
Swift County,Minnesota,45.2827,-95.6815
Stevens County,Minnesota,45.5861,-96.0003
Rock County,Minnesota,43.6747,-96.2532
Yellow Medicine County,Minnesota,44.7162,-95.8684
Pipestone County,Minnesota,44.023,-96.2587
Marshall County,Minnesota,48.3581,-96.3685
Clearwater County,Minnesota,47.5777,-95.379
Murray County,Minnesota,44.0221,-95.7633
Lac qui Parle County,Minnesota,44.9955,-96.1735
Norman County,Minnesota,47.3265,-96.4553
Wilkin County,Minnesota,46.357,-96.4683
Grant County,Minnesota,45.9341,-96.0122
Lincoln County,Minnesota,44.4126,-96.2671
Cook County,Minnesota,47.9026,-90.5354
Mahnomen County,Minnesota,47.3253,-95.8091
Big Stone County,Minnesota,45.4261,-96.411
Kittson County,Minnesota,48.7766,-96.7829
Red Lake County,Minnesota,47.8717,-96.0953
Lake of the Woods County,Minnesota,48.7712,-94.9046
Traverse County,Minnesota,45.7722,-96.4716
Hinds County,Mississippi,32.2667,-90.4429
Harrison County,Mississippi,30.5122,-89.116
DeSoto County,Mississippi,34.8753,-89.9912
Rankin County,Mississippi,32.2641,-89.9458
Jackson County,Mississippi,30.5425,-88.6358
Madison County,Mississippi,32.6347,-90.0337
Lee County,Mississippi,34.2899,-88.6804
Forrest County,Mississippi,31.1889,-89.2579
Lauderdale County,Mississippi,32.4043,-88.6626
Jones County,Mississippi,31.6225,-89.1688
Lamar County,Mississippi,31.206,-89.5087
Lowndes County,Mississippi,33.4729,-88.4433
Pearl River County,Mississippi,30.7688,-89.5896
Lafayette County,Mississippi,34.3568,-89.485
Oktibbeha County,Mississippi,33.425,-88.8793
Hancock County,Mississippi,30.4165,-89.489
Washington County,Mississippi,33.2839,-90.9474
Warren County,Mississippi,32.3573,-90.852
Pike County,Mississippi,31.1749,-90.4042
Lincoln County,Mississippi,31.5324,-90.454
Alcorn County,Mississippi,34.8808,-88.5803
Monroe County,Mississippi,33.8923,-88.4805
Marshall County,Mississippi,34.7623,-89.5031
Panola County,Mississippi,34.3639,-89.9506
Pontotoc County,Mississippi,34.2254,-89.0374
Bolivar County,Mississippi,33.7971,-90.8806
Adams County,Mississippi,31.4829,-91.3535
Neshoba County,Mississippi,32.7535,-89.1176
Copiah County,Mississippi,31.8693,-90.4488
Tate County,Mississippi,34.6503,-89.9448
Scott County,Mississippi,32.4064,-89.5376
Leflore County,Mississippi,33.5505,-90.3011
Union County,Mississippi,34.4905,-89.0038
Yazoo County,Mississippi,32.7803,-90.3964
Simpson County,Mississippi,31.9132,-89.9195
Sunflower County,Mississippi,33.6023,-90.5886
Prentiss County,Mississippi,34.6183,-88.5201
George County,Mississippi,30.8626,-88.644
Marion County,Mississippi,31.2308,-89.8224
Itawamba County,Mississippi,34.28,-88.3613
Tippah County,Mississippi,34.7684,-88.9089
Grenada County,Mississippi,33.7699,-89.8019
Leake County,Mississippi,32.7535,-89.524
Newton County,Mississippi,32.4002,-89.1188
Coahoma County,Mississippi,34.23,-90.6018
Wayne County,Mississippi,31.6408,-88.6958
Tishomingo County,Mississippi,34.7404,-88.2393
Clay County,Mississippi,33.6556,-88.7816
Stone County,Mississippi,30.79,-89.1177
Covington County,Mississippi,31.6332,-89.5526
Attala County,Mississippi,33.0863,-89.5815
Winston County,Mississippi,33.0885,-89.0344
Chickasaw County,Mississippi,33.9208,-88.9479
Holmes County,Mississippi,33.1235,-90.0921
Jasper County,Mississippi,32.0191,-89.1189
Clarke County,Mississippi,32.0414,-88.6894
Smith County,Mississippi,32.0177,-89.5067
Walthall County,Mississippi,31.1484,-90.1061
Greene County,Mississippi,31.2142,-88.6392
Calhoun County,Mississippi,33.9365,-89.3365
Amite County,Mississippi,31.1744,-90.8044
Tallahatchie County,Mississippi,33.9505,-90.1733
Yalobusha County,Mississippi,34.0282,-89.7076
Lawrence County,Mississippi,31.5502,-90.107
Perry County,Mississippi,31.172,-88.9924
Jefferson Davis County,Mississippi,31.5697,-89.823
Noxubee County,Mississippi,33.1102,-88.5698
Webster County,Mississippi,33.6131,-89.2848
Carroll County,Mississippi,33.4485,-89.9202
Montgomery County,Mississippi,33.494,-89.6164
Tunica County,Mississippi,34.6507,-90.375
Claiborne County,Mississippi,31.9737,-90.9118
Kemper County,Mississippi,32.7546,-88.6412
Wilkinson County,Mississippi,31.1611,-91.3109
Choctaw County,Mississippi,33.3473,-89.2484
Humphreys County,Mississippi,33.1287,-90.5266
Franklin County,Mississippi,31.4772,-90.8979
Benton County,Mississippi,34.8173,-89.1885
Jefferson County,Mississippi,31.7342,-91.0373
Quitman County,Mississippi,34.2514,-90.2891
Sharkey County,Mississippi,32.8798,-90.8132
Issaquena County,Mississippi,32.7414,-90.9892
St. Louis County,Missouri,38.6407,-90.4434
Jackson County,Missouri,39.0085,-94.3461
St. Charles County,Missouri,38.782,-90.6749
Greene County,Missouri,37.2581,-93.342
St. Louis City,Missouri,38.6358,-90.2451
Clay County,Missouri,39.3105,-94.4209
Jefferson County,Missouri,38.261,-90.5377
Boone County,Missouri,38.9906,-92.3097
Jasper County,Missouri,37.2036,-94.3406
Cass County,Missouri,38.647,-94.3549
Platte County,Missouri,39.3803,-94.7738
Franklin County,Missouri,38.4111,-91.075
Christian County,Missouri,36.9696,-93.1889
Buchanan County,Missouri,39.6598,-94.8059
Cape Girardeau County,Missouri,37.384,-89.6845
Cole County,Missouri,38.5054,-92.2816
St. Francois County,Missouri,37.8102,-90.4722
Lincoln County,Missouri,39.058,-90.96
Newton County,Missouri,36.9055,-94.3393
Taney County,Missouri,36.6548,-93.0411
Johnson County,Missouri,38.7441,-93.8064
Pulaski County,Missouri,37.8246,-92.2076
Phelps County,Missouri,37.8772,-91.7923
Callaway County,Missouri,38.8355,-91.926
Camden County,Missouri,38.027,-92.766
Pettis County,Missouri,38.7283,-93.2851
Butler County,Missouri,36.7164,-90.4066
Howell County,Missouri,36.774,-91.8865
Webster County,Missouri,37.2809,-92.8759
Lawrence County,Missouri,37.1064,-93.833
Scott County,Missouri,37.053,-89.5686
Laclede County,Missouri,37.6583,-92.5903
Warren County,Missouri,38.7646,-91.1607
Barry County,Missouri,36.7099,-93.8291
Lafayette County,Missouri,39.0655,-93.7854
Polk County,Missouri,37.6165,-93.4005
Stone County,Missouri,36.7469,-93.456
Stoddard County,Missouri,36.8556,-89.9443
Marion County,Missouri,39.8059,-91.6224
Dunklin County,Missouri,36.2721,-90.0909
Adair County,Missouri,40.1906,-92.6007
Audrain County,Missouri,39.2157,-91.8416
Miller County,Missouri,38.2145,-92.4284
Texas County,Missouri,37.3173,-91.9651
Randolph County,Missouri,39.4401,-92.4971
Washington County,Missouri,37.9617,-90.8774
McDonald County,Missouri,36.6287,-94.3483
Saline County,Missouri,39.1368,-93.2018
Ray County,Missouri,39.3523,-93.9899
Crawford County,Missouri,37.9764,-91.3039
Henry County,Missouri,38.3852,-93.7928
Morgan County,Missouri,38.4237,-92.886
Clinton County,Missouri,39.6018,-94.4046
Nodaway County,Missouri,40.3608,-94.8834
Vernon County,Missouri,37.8506,-94.3424
Benton County,Missouri,38.2949,-93.2879
Perry County,Missouri,37.7072,-89.8244
Ste. Genevieve County,Missouri,37.8945,-90.1944
Wright County,Missouri,37.2702,-92.4687
Andrew County,Missouri,39.9835,-94.8021
Pike County,Missouri,39.3438,-91.1714
Dallas County,Missouri,37.6804,-93.0237
Cooper County,Missouri,38.8435,-92.8101
New Madrid County,Missouri,36.5946,-89.6517
Bates County,Missouri,38.2573,-94.34
Pemiscot County,Missouri,36.2114,-89.7854
Moniteau County,Missouri,38.6328,-92.5831
Macon County,Missouri,39.8308,-92.5646
Gasconade County,Missouri,38.4409,-91.5079
Dent County,Missouri,37.6066,-91.5079
Livingston County,Missouri,39.7821,-93.5483
Cedar County,Missouri,37.7238,-93.8566
Osage County,Missouri,38.4604,-91.8618
Madison County,Missouri,37.478,-90.345
Mississippi County,Missouri,36.8281,-89.2911
Linn County,Missouri,39.8702,-93.1072
DeKalb County,Missouri,39.8932,-94.4047
Douglas County,Missouri,36.9326,-92.4988
Barton County,Missouri,37.5023,-94.3471
Montgomery County,Missouri,38.9415,-91.4702
Wayne County,Missouri,37.1126,-90.4614
Ripley County,Missouri,36.6528,-90.8638
Bollinger County,Missouri,37.3222,-90.0259
Ralls County,Missouri,39.5277,-91.522
Howard County,Missouri,39.1425,-92.6963
Lewis County,Missouri,40.0969,-91.7221
Grundy County,Missouri,40.1139,-93.5654
Iron County,Missouri,37.5552,-90.7735
St. Clair County,Missouri,38.0372,-93.776
Caldwell County,Missouri,39.6557,-93.9827
Oregon County,Missouri,36.6866,-91.4033
Ozark County,Missouri,36.6493,-92.4447
Monroe County,Missouri,39.4954,-92.0007
Carroll County,Missouri,39.427,-93.5052
Maries County,Missouri,38.1616,-91.9249
Hickory County,Missouri,37.9408,-93.3207
Daviess County,Missouri,39.9608,-93.9855
Harrison County,Missouri,40.3547,-93.992
Dade County,Missouri,37.432,-93.8503
Chariton County,Missouri,39.5151,-92.9626
Shannon County,Missouri,37.1574,-91.4005
Clark County,Missouri,40.4103,-91.7384
Gentry County,Missouri,40.2121,-94.4099
Reynolds County,Missouri,37.3623,-90.9691
Shelby County,Missouri,39.7978,-92.0766
Sullivan County,Missouri,40.2106,-93.1115
Carter County,Missouri,36.9412,-90.9623
Atchison County,Missouri,40.4308,-95.4281
Scotland County,Missouri,40.4526,-92.1471
Putnam County,Missouri,40.4789,-93.0162
Holt County,Missouri,40.0944,-95.2155
Schuyler County,Missouri,40.4703,-92.521
Knox County,Missouri,40.1283,-92.1481
Mercer County,Missouri,40.4223,-93.5685
Worth County,Missouri,40.4791,-94.4221
Yellowstone County,Montana,45.9373,-108.2744
Gallatin County,Montana,45.5404,-111.1704
Missoula County,Montana,47.0365,-113.9237
Flathead County,Montana,48.2951,-114.0497
Cascade County,Montana,47.308,-111.347
Lewis and Clark County,Montana,47.1224,-112.3904
Ravalli County,Montana,46.0817,-114.1207
Silver Bow County,Montana,45.9024,-112.6567
Lake County,Montana,47.6459,-114.0894
Lincoln County,Montana,48.5425,-115.4051
Park County,Montana,45.4884,-110.5267
Hill County,Montana,48.6282,-110.1112
Glacier County,Montana,48.7051,-112.9947
Big Horn County,Montana,45.4234,-107.4898
Sanders County,Montana,47.6748,-115.1333
Jefferson County,Montana,46.1485,-112.0938
Custer County,Montana,46.2527,-105.5717
Fergus County,Montana,47.2636,-109.2245
Richland County,Montana,47.7879,-104.5614
Roosevelt County,Montana,48.2945,-105.0164
Carbon County,Montana,45.2274,-109.0281
Beaverhead County,Montana,45.1327,-112.8988
Deer Lodge County,Montana,46.0608,-113.0678
Stillwater County,Montana,45.669,-109.3952
Dawson County,Montana,47.2664,-104.8995
Madison County,Montana,45.3007,-111.9203
Rosebud County,Montana,46.2297,-106.7307
Valley County,Montana,48.3653,-106.6675
Blaine County,Montana,48.4327,-108.9586
Powell County,Montana,46.8564,-112.9361
Broadwater County,Montana,46.3324,-111.4955
Teton County,Montana,47.8371,-112.2408
Pondera County,Montana,48.2278,-112.2263
Chouteau County,Montana,47.8806,-110.4353
Toole County,Montana,48.6554,-111.6956
Musselshell County,Montana,46.4966,-108.3981
Mineral County,Montana,47.1472,-114.9983
Phillips County,Montana,48.2592,-107.9133
Sheridan County,Montana,48.7212,-104.5047
Sweet Grass County,Montana,45.8138,-109.941
Granite County,Montana,46.4045,-113.4404
Fallon County,Montana,46.334,-104.4174
Wheatland County,Montana,46.4663,-109.8446
Judith Basin County,Montana,47.0454,-110.266
Liberty County,Montana,48.5617,-111.0246
Meagher County,Montana,46.5982,-110.8857
Powder River County,Montana,45.395,-105.6302
McCone County,Montana,47.6452,-105.7954
Daniels County,Montana,48.7838,-105.5485
Carter County,Montana,45.5168,-104.5362
Prairie County,Montana,46.8605,-105.378
Wibaux County,Montana,46.9653,-104.249
Garfield County,Montana,47.2776,-106.9929
Golden Valley County,Montana,46.3812,-109.1752
Treasure County,Montana,46.2115,-107.2716
Petroleum County,Montana,47.1176,-108.2502
Douglas County,Nebraska,41.2953,-96.1543
Lancaster County,Nebraska,40.7842,-96.6878
Sarpy County,Nebraska,41.1129,-96.112
Hall County,Nebraska,40.8726,-98.5022
Buffalo County,Nebraska,40.8552,-99.075
Dodge County,Nebraska,41.5779,-96.654
Scotts Bluff County,Nebraska,41.8506,-103.708
Madison County,Nebraska,41.9167,-97.6008
Lincoln County,Nebraska,41.0477,-100.7453
Platte County,Nebraska,41.5713,-97.5211
Adams County,Nebraska,40.5245,-98.5012
Cass County,Nebraska,40.9097,-96.1409
Dawson County,Nebraska,40.8699,-99.8196
Saunders County,Nebraska,41.2264,-96.6374
Gage County,Nebraska,40.2619,-96.6894
Dakota County,Nebraska,42.3911,-96.5645
Washington County,Nebraska,41.5311,-96.222
Seward County,Nebraska,40.8724,-97.1395
Otoe County,Nebraska,40.6485,-96.1348
Saline County,Nebraska,40.5241,-97.1409
York County,Nebraska,40.8727,-97.5971
Box Butte County,Nebraska,42.2198,-103.0857
Red Willow County,Nebraska,40.1758,-100.4769
Custer County,Nebraska,41.3943,-99.7262
Colfax County,Nebraska,41.574,-97.0865
Holt County,Nebraska,42.4557,-98.7838
Wayne County,Nebraska,42.2093,-97.1193
Cheyenne County,Nebraska,41.2198,-102.995
Hamilton County,Nebraska,40.873,-98.0229
Cuming County,Nebraska,41.9164,-96.7874
Phelps County,Nebraska,40.5111,-99.4145
Knox County,Nebraska,42.6368,-97.8919
Cedar County,Nebraska,42.5993,-97.2524
Butler County,Nebraska,41.2261,-97.1318
Keith County,Nebraska,41.1989,-101.6615
Dawes County,Nebraska,42.7197,-103.1354
Richardson County,Nebraska,40.125,-95.7175
Merrick County,Nebraska,41.169,-98.038
Pierce County,Nebraska,42.2644,-97.6013
Jefferson County,Nebraska,40.1757,-97.1427
Nemaha County,Nebraska,40.3877,-95.8498
Burt County,Nebraska,41.8515,-96.3286
Thurston County,Nebraska,42.1582,-96.544
Kearney County,Nebraska,40.5067,-98.948
Howard County,Nebraska,41.2201,-98.5171
Antelope County,Nebraska,42.1769,-98.0667
Clay County,Nebraska,40.5244,-98.0513
Stanton County,Nebraska,41.9169,-97.1939
Dixon County,Nebraska,42.4931,-96.8677
Fillmore County,Nebraska,40.5247,-97.5965
Cherry County,Nebraska,42.545,-101.1186
Boone County,Nebraska,41.7068,-98.0672
Johnson County,Nebraska,40.3926,-96.2651
Polk County,Nebraska,41.1869,-97.5684
Sheridan County,Nebraska,42.5047,-102.4089
Thayer County,Nebraska,40.1762,-97.5949
Furnas County,Nebraska,40.1764,-99.9123
Morrill County,Nebraska,41.716,-103.0105
Nuckolls County,Nebraska,40.1764,-98.0472
Valley County,Nebraska,41.5673,-98.9819
Chase County,Nebraska,40.5242,-101.698
Webster County,Nebraska,40.1764,-98.5
Kimball County,Nebraska,41.1978,-103.7149
Nance County,Nebraska,41.3973,-97.9922
Harlan County,Nebraska,40.1765,-99.4046
Sherman County,Nebraska,41.2206,-98.9762
Franklin County,Nebraska,40.1763,-98.9528
Perkins County,Nebraska,40.851,-101.6497
Brown County,Nebraska,42.43,-99.9295
Hitchcock County,Nebraska,40.1763,-101.0423
Pawnee County,Nebraska,40.1315,-96.2371
Frontier County,Nebraska,40.5301,-100.3942
Greeley County,Nebraska,41.5674,-98.5212
Gosper County,Nebraska,40.5148,-99.8307
Deuel County,Nebraska,41.1116,-102.3339
Garfield County,Nebraska,41.9144,-98.9914
Dundy County,Nebraska,40.1762,-101.6879
Garden County,Nebraska,41.6194,-102.3354
Boyd County,Nebraska,42.8997,-98.7665
Rock County,Nebraska,42.4213,-99.4499
Sioux County,Nebraska,42.4877,-103.7589
Keya Paha County,Nebraska,42.8789,-99.7124
Hayes County,Nebraska,40.5248,-101.0619
Logan County,Nebraska,41.5666,-100.4827
Wheeler County,Nebraska,41.9148,-98.5282
Banner County,Nebraska,41.546,-103.7106
Hooker County,Nebraska,41.9161,-101.1353
Grant County,Nebraska,41.915,-101.7406
Loup County,Nebraska,41.9138,-99.4544
Thomas County,Nebraska,41.9136,-100.5558
Arthur County,Nebraska,41.569,-101.6958
McPherson County,Nebraska,41.5682,-101.0604
Blaine County,Nebraska,41.9128,-99.9768
Clark County,Nevada,36.2152,-115.0135
Washoe County,Nevada,40.6655,-119.6643
Lyon County,Nevada,39.0206,-119.189
Carson City,Nevada,39.1511,-119.7476
Elko County,Nevada,41.1458,-115.3577
Nye County,Nevada,38.0422,-116.4719
Douglas County,Nevada,38.9123,-119.6162
Churchill County,Nevada,39.5809,-118.3358
Humboldt County,Nevada,41.4068,-118.112
White Pine County,Nevada,39.4421,-114.9017
Pershing County,Nevada,40.4404,-118.4044
Lander County,Nevada,39.9337,-117.038
Mineral County,Nevada,38.5386,-118.4349
Lincoln County,Nevada,37.6433,-114.8775
Storey County,Nevada,39.447,-119.5293
Eureka County,Nevada,39.9839,-116.2686
Esmeralda County,Nevada,37.7846,-117.6323
Hillsborough County,New Hampshire,42.9153,-71.7161
Rockingham County,New Hampshire,42.9875,-71.1254
Merrimack County,New Hampshire,43.2975,-71.6802
Strafford County,New Hampshire,43.2969,-71.0289
Grafton County,New Hampshire,43.9407,-71.8208
Cheshire County,New Hampshire,42.9193,-72.2512
Belknap County,New Hampshire,43.5179,-71.4227
Carroll County,New Hampshire,43.8738,-71.2031
Sullivan County,New Hampshire,43.3613,-72.2221
Coos County,New Hampshire,44.6896,-71.3056
Bergen County,New Jersey,40.9597,-74.0742
Middlesex County,New Jersey,40.4391,-74.4117
Essex County,New Jersey,40.788,-74.2481
Hudson County,New Jersey,40.7408,-74.0751
Monmouth County,New Jersey,40.2601,-74.2216
Ocean County,New Jersey,39.8856,-74.2814
Union County,New Jersey,40.6601,-74.31
Camden County,New Jersey,39.8035,-74.9597
Passaic County,New Jersey,41.0343,-74.3009
Morris County,New Jersey,40.862,-74.5445
Burlington County,New Jersey,39.8777,-74.6681
Mercer County,New Jersey,40.2834,-74.7018
Somerset County,New Jersey,40.5635,-74.6163
Gloucester County,New Jersey,39.7173,-75.1414
Atlantic County,New Jersey,39.4778,-74.661
Cumberland County,New Jersey,39.3739,-75.1107
Sussex County,New Jersey,41.1393,-74.6909
Hunterdon County,New Jersey,40.5673,-74.9122
Warren County,New Jersey,40.8572,-74.9973
Cape May County,New Jersey,39.1495,-74.8004
Salem County,New Jersey,39.5876,-75.3491
Bernalillo County,New Mexico,35.0514,-106.6701
DoÃ±a Ana County,New Mexico,32.3526,-106.8328
Santa Fe County,New Mexico,35.5069,-105.9763
Sandoval County,New Mexico,35.6886,-106.8659
San Juan County,New Mexico,36.5085,-108.3206
Valencia County,New Mexico,34.7155,-106.809
Lea County,New Mexico,32.7921,-103.4125
McKinley County,New Mexico,35.5807,-108.2618
Otero County,New Mexico,32.6132,-105.7414
Chaves County,New Mexico,33.3633,-104.4669
Eddy County,New Mexico,32.4714,-104.3044
Curry County,New Mexico,34.5742,-103.347
Rio Arriba County,New Mexico,36.5096,-106.6931
Taos County,New Mexico,36.5783,-105.631
Grant County,New Mexico,32.7389,-108.3824
San Miguel County,New Mexico,35.4805,-104.8158
Cibola County,New Mexico,34.9125,-107.9997
Luna County,New Mexico,32.1823,-107.7499
Lincoln County,New Mexico,33.7453,-105.4593
Los Alamos County,New Mexico,35.8693,-106.3073
Roosevelt County,New Mexico,34.0212,-103.48
Socorro County,New Mexico,34.0072,-106.9303
Torrance County,New Mexico,34.6405,-105.8508
Colfax County,New Mexico,36.6061,-104.6468
Sierra County,New Mexico,33.1305,-107.1924
Quay County,New Mexico,35.1043,-103.5498
Guadalupe County,New Mexico,34.8633,-104.7906
Mora County,New Mexico,36.0105,-104.945
Hidalgo County,New Mexico,31.914,-108.7148
Union County,New Mexico,36.4816,-103.471
Catron County,New Mexico,33.9153,-108.4046
De Baca County,New Mexico,34.3425,-104.412
Harding County,New Mexico,35.8579,-103.8203
Kings County,New York,40.6413,-73.9383
Queens County,New York,40.7035,-73.8196
New York County,New York,40.7793,-73.9668
Suffolk County,New York,40.8681,-72.8454
Bronx County,New York,40.8501,-73.8671
Nassau County,New York,40.7326,-73.5862
Westchester County,New York,41.1626,-73.7561
Erie County,New York,42.7639,-78.7323
Monroe County,New York,43.1464,-77.6961
Richmond County,New York,40.5807,-74.1531
Onondaga County,New York,43.0058,-76.1946
Orange County,New York,41.4022,-74.3056
Rockland County,New York,41.1525,-74.0242
Albany County,New York,42.6002,-73.9736
Dutchess County,New York,41.7652,-73.7429
Saratoga County,New York,43.1074,-73.8639
Oneida County,New York,43.2418,-75.4358
Niagara County,New York,43.2001,-78.7452
Broome County,New York,42.1602,-75.8196
Ulster County,New York,41.8881,-74.2585
Rensselaer County,New York,42.7111,-73.5097
Schenectady County,New York,42.8181,-74.0586
Chautauqua County,New York,42.2281,-79.3663
Oswego County,New York,43.4269,-76.1414
Jefferson County,New York,44.0495,-75.9203
Ontario County,New York,42.8528,-77.2998
St. Lawrence County,New York,44.4964,-75.0691
Tompkins County,New York,42.452,-76.4736
Putnam County,New York,41.4267,-73.7495
Steuben County,New York,42.2678,-77.3838
Wayne County,New York,43.1566,-77.0294
Chemung County,New York,42.1413,-76.76
Clinton County,New York,44.7462,-73.6782
Sullivan County,New York,41.7164,-74.7681
Cattaraugus County,New York,42.2486,-78.6788
Cayuga County,New York,42.9175,-76.5545
Madison County,New York,42.9128,-75.6696
Warren County,New York,43.561,-73.846
Livingston County,New York,42.7281,-77.7755
Columbia County,New York,42.2501,-73.6318
Washington County,New York,43.3137,-73.4308
Herkimer County,New York,43.4192,-74.9624
Otsego County,New York,42.6338,-75.0326
Genesee County,New York,43.0009,-78.1937
Fulton County,New York,43.1138,-74.4222
Montgomery County,New York,42.9023,-74.4397
Tioga County,New York,42.1703,-76.3063
Greene County,New York,42.2765,-74.1227
Franklin County,New York,44.5929,-74.3038
Allegany County,New York,42.2574,-78.0276
Chenango County,New York,42.4935,-75.6116
Cortland County,New York,42.595,-76.0703
Delaware County,New York,42.1981,-74.9665
Wyoming County,New York,42.7024,-78.2245
Orleans County,New York,43.2521,-78.2312
Essex County,New York,44.1172,-73.7726
Seneca County,New York,42.781,-76.8238
Schoharie County,New York,42.5882,-74.4421
Lewis County,New York,43.7851,-75.4486
Yates County,New York,42.6335,-77.1055
Schuyler County,New York,42.3938,-76.8752
Hamilton County,New York,43.6611,-74.4974
Wake County,North Carolina,35.7903,-78.6503
Mecklenburg County,North Carolina,35.2467,-80.8328
Guilford County,North Carolina,36.0795,-79.7889
Forsyth County,North Carolina,36.1306,-80.2563
Cumberland County,North Carolina,35.0487,-78.8277
Durham County,North Carolina,36.036,-78.8766
Buncombe County,North Carolina,35.6112,-82.5301
Union County,North Carolina,34.9884,-80.5307
Gaston County,North Carolina,35.2944,-81.1803
New Hanover County,North Carolina,34.2329,-77.8848
Cabarrus County,North Carolina,35.3868,-80.5519
Johnston County,North Carolina,35.5178,-78.3657
Onslow County,North Carolina,34.7322,-77.4322
Iredell County,North Carolina,35.8071,-80.8734
Alamance County,North Carolina,36.0437,-79.3995
Pitt County,North Carolina,35.5933,-77.3745
Davidson County,North Carolina,35.7933,-80.2128
Catawba County,North Carolina,35.662,-81.2151
Rowan County,North Carolina,35.6394,-80.5247
Orange County,North Carolina,36.0611,-79.1207
Randolph County,North Carolina,35.7103,-79.806
Brunswick County,North Carolina,34.0715,-78.2383
Harnett County,North Carolina,35.3688,-78.8693
Robeson County,North Carolina,34.6402,-79.1039
Wayne County,North Carolina,35.364,-78.004
Henderson County,North Carolina,35.3363,-82.48
Craven County,North Carolina,35.1249,-77.0939
Moore County,North Carolina,35.3106,-79.4814
Cleveland County,North Carolina,35.3341,-81.5555
Nash County,North Carolina,35.9673,-77.9864
Rockingham County,North Carolina,36.396,-79.775
Lincoln County,North Carolina,35.4856,-81.2235
Burke County,North Carolina,35.7496,-81.7048
Caldwell County,North Carolina,35.953,-81.5464
Wilson County,North Carolina,35.7051,-77.9187
Chatham County,North Carolina,35.7026,-79.2553
Surry County,North Carolina,36.4146,-80.688
Franklin County,North Carolina,36.0828,-78.2857
Carteret County,North Carolina,34.8357,-76.6589
Wilkes County,North Carolina,36.2062,-81.163
Rutherford County,North Carolina,35.4026,-81.9198
Lee County,North Carolina,35.4752,-79.1715
Stanly County,North Carolina,35.3119,-80.251
Haywood County,North Carolina,35.556,-82.9822
Pender County,North Carolina,34.5249,-77.9052
Granville County,North Carolina,36.304,-78.6527
Sampson County,North Carolina,34.9916,-78.3714
Lenoir County,North Carolina,35.2388,-77.6413
Watauga County,North Carolina,36.2311,-81.6964
Hoke County,North Carolina,35.0175,-79.2373
Columbus County,North Carolina,34.2657,-78.655
Duplin County,North Carolina,34.9365,-77.933
Edgecombe County,North Carolina,35.9129,-77.5971
Halifax County,North Carolina,36.2574,-77.6517
Beaufort County,North Carolina,35.494,-76.8598
Stokes County,North Carolina,36.4019,-80.2397
McDowell County,North Carolina,35.6817,-82.0493
Richmond County,North Carolina,35.0059,-79.7479
Davie County,North Carolina,35.9291,-80.5445
Vance County,North Carolina,36.3649,-78.4079
Jackson County,North Carolina,35.2876,-83.1408
Pasquotank County,North Carolina,36.2955,-76.2843
Person County,North Carolina,36.39,-78.9718
Yadkin County,North Carolina,36.1605,-80.6652
Dare County,North Carolina,35.7824,-75.7988
Macon County,North Carolina,35.1505,-83.4222
Alexander County,North Carolina,35.921,-81.177
Scotland County,North Carolina,34.8409,-79.4804
Transylvania County,North Carolina,35.2021,-82.7982
Bladen County,North Carolina,34.6146,-78.5637
Cherokee County,North Carolina,35.1339,-84.0635
Currituck County,North Carolina,36.405,-76.0079
Ashe County,North Carolina,36.4341,-81.5003
Montgomery County,North Carolina,35.3325,-79.9055
Caswell County,North Carolina,36.3932,-79.3335
Anson County,North Carolina,34.9738,-80.1027
Martin County,North Carolina,35.8432,-77.1092
Hertford County,North Carolina,36.3591,-76.982
Madison County,North Carolina,35.858,-82.7058
Greene County,North Carolina,35.485,-77.6758
Polk County,North Carolina,35.2793,-82.1697
Warren County,North Carolina,36.3965,-78.1067
Yancey County,North Carolina,35.8989,-82.3076
Bertie County,North Carolina,36.0663,-76.9788
Avery County,North Carolina,36.0765,-81.9226
Northampton County,North Carolina,36.4178,-77.3969
Mitchell County,North Carolina,36.0133,-82.1636
Swain County,North Carolina,35.4868,-83.4928
Chowan County,North Carolina,36.1508,-76.6079
Perquimans County,North Carolina,36.2059,-76.4411
Pamlico County,North Carolina,35.1434,-76.7407
Clay County,North Carolina,35.0572,-83.7502
Washington County,North Carolina,35.8225,-76.5775
Alleghany County,North Carolina,36.4916,-81.1271
Camden County,North Carolina,36.3891,-76.208
Gates County,North Carolina,36.4449,-76.7005
Jones County,North Carolina,35.0217,-77.3552
Graham County,North Carolina,35.3502,-83.8335
Hyde County,North Carolina,35.5306,-76.2517
Tyrrell County,North Carolina,35.8172,-76.209
Cass County,North Dakota,46.933,-97.248
Burleigh County,North Dakota,46.9774,-100.4687
Grand Forks County,North Dakota,47.9219,-97.4569
Ward County,North Dakota,48.2217,-101.5418
Williams County,North Dakota,48.3437,-103.4802
Morton County,North Dakota,46.716,-101.2811
Stark County,North Dakota,46.8107,-102.6551
Stutsman County,North Dakota,46.9793,-98.9588
Richland County,North Dakota,46.2646,-96.9483
McKenzie County,North Dakota,47.7402,-103.3953
Rolette County,North Dakota,48.7724,-99.8409
Ramsey County,North Dakota,48.2689,-98.7201
Barnes County,North Dakota,46.9361,-98.0716
Walsh County,North Dakota,48.3695,-97.7213
McLean County,North Dakota,47.6069,-101.3218
Mountrail County,North Dakota,48.2013,-102.3557
Mercer County,North Dakota,47.3092,-101.8315
Traill County,North Dakota,47.4542,-97.1616
Pembina County,North Dakota,48.7675,-97.5518
Bottineau County,North Dakota,48.7922,-100.8333
Benson County,North Dakota,48.0694,-99.366
Ransom County,North Dakota,46.4562,-97.6574
McHenry County,North Dakota,48.2346,-100.6363
Dickey County,North Dakota,46.1102,-98.5047
LaMoure County,North Dakota,46.4569,-98.5355
Dunn County,North Dakota,47.3568,-102.6182
Pierce County,North Dakota,48.2496,-99.9718
Wells County,North Dakota,47.5875,-99.6609
Sioux County,North Dakota,46.1127,-101.0404
Sargent County,North Dakota,46.1078,-97.6306
Cavalier County,North Dakota,48.7723,-98.4648
Foster County,North Dakota,47.4571,-98.883
Emmons County,North Dakota,46.2851,-100.2387
Nelson County,North Dakota,47.9217,-98.192
Bowman County,North Dakota,46.1126,-103.5206
McIntosh County,North Dakota,46.1118,-99.4412
Hettinger County,North Dakota,46.4325,-102.4603
Kidder County,North Dakota,46.9801,-99.7801
Eddy County,North Dakota,47.7176,-98.9016
Grant County,North Dakota,46.3583,-101.6397
Griggs County,North Dakota,47.4573,-98.237
Renville County,North Dakota,48.719,-101.6578
Divide County,North Dakota,48.8149,-103.4872
Adams County,North Dakota,46.0968,-102.5284
Burke County,North Dakota,48.791,-102.5182
Towner County,North Dakota,48.6855,-99.2457
Logan County,North Dakota,46.4573,-99.4774
Oliver County,North Dakota,47.1153,-101.3403
Steele County,North Dakota,47.4562,-97.7246
Golden Valley County,North Dakota,46.9402,-103.8466
Sheridan County,North Dakota,47.5755,-100.3456
Billings County,North Dakota,47.0236,-103.3763
Slope County,North Dakota,46.4472,-103.4599
Franklin County,Ohio,39.9695,-83.0093
Cuyahoga County,Ohio,41.4243,-81.6586
Hamilton County,Ohio,39.1955,-84.5428
Summit County,Ohio,41.126,-81.5322
Montgomery County,Ohio,39.7547,-84.2907
Lucas County,Ohio,41.6197,-83.6589
Butler County,Ohio,39.4386,-84.5756
Stark County,Ohio,40.8139,-81.3656
Lorain County,Ohio,41.2956,-82.151
Warren County,Ohio,39.4277,-84.1668
Lake County,Ohio,41.6963,-81.2373
Mahoning County,Ohio,41.0146,-80.7763
Delaware County,Ohio,40.2784,-83.0049
Clermont County,Ohio,39.0476,-84.1517
Trumbull County,Ohio,41.317,-80.7613
Medina County,Ohio,41.1176,-81.8997
Licking County,Ohio,40.0916,-82.4831
Greene County,Ohio,39.6915,-83.8899
Portage County,Ohio,41.1677,-81.1974
Fairfield County,Ohio,39.7516,-82.6306
Clark County,Ohio,39.9167,-83.7844
Wood County,Ohio,41.3617,-83.623
Richland County,Ohio,40.7747,-82.5365
Wayne County,Ohio,40.8289,-81.888
Miami County,Ohio,40.0535,-84.2288
Allen County,Ohio,40.7715,-84.1058
Columbiana County,Ohio,40.7684,-80.7772
Ashtabula County,Ohio,41.7072,-80.7482
Geauga County,Ohio,41.4995,-81.1786
Tuscarawas County,Ohio,40.4409,-81.4737
Muskingum County,Ohio,39.9654,-81.9444
Ross County,Ohio,39.3376,-83.057
Erie County,Ohio,41.3641,-82.6194
Hancock County,Ohio,41.0019,-83.6665
Scioto County,Ohio,38.8039,-82.9929
Belmont County,Ohio,40.0158,-80.9885
Marion County,Ohio,40.5872,-83.1609
Jefferson County,Ohio,40.385,-80.761
Union County,Ohio,40.2994,-83.3716
Knox County,Ohio,40.3988,-82.4215
Athens County,Ohio,39.3339,-82.0452
Washington County,Ohio,39.4553,-81.4953
Sandusky County,Ohio,41.3562,-83.1464
Pickaway County,Ohio,39.6419,-83.0244
Huron County,Ohio,41.1463,-82.598
Lawrence County,Ohio,38.5984,-82.5368
Seneca County,Ohio,41.1239,-83.1277
Ashland County,Ohio,40.846,-82.2707
Darke County,Ohio,40.1333,-84.6194
Shelby County,Ohio,40.3316,-84.2048
Auglaize County,Ohio,40.5609,-84.2217
Logan County,Ohio,40.3885,-83.7658
Holmes County,Ohio,40.5612,-81.9293
Madison County,Ohio,39.8942,-83.4005
Brown County,Ohio,38.9338,-83.8673
Highland County,Ohio,39.1847,-83.601
Fulton County,Ohio,41.6018,-84.1301
Mercer County,Ohio,40.5399,-84.6294
Clinton County,Ohio,39.4149,-83.8084
Crawford County,Ohio,40.8508,-82.9198
Preble County,Ohio,39.7415,-84.648
Ottawa County,Ohio,41.5379,-83.1435
Champaign County,Ohio,40.1377,-83.7696
Guernsey County,Ohio,40.052,-81.4943
Defiance County,Ohio,41.3239,-84.4905
Williams County,Ohio,41.5603,-84.5882
Coshocton County,Ohio,40.3017,-81.9201
Perry County,Ohio,39.7372,-82.2361
Morrow County,Ohio,40.5241,-82.7941
Putnam County,Ohio,41.0221,-84.1317
Jackson County,Ohio,39.0197,-82.6184
Hardin County,Ohio,40.6616,-83.6595
Gallia County,Ohio,38.8248,-82.3169
Fayette County,Ohio,39.5599,-83.4561
Van Wert County,Ohio,40.8554,-84.5861
Hocking County,Ohio,39.4971,-82.4792
Henry County,Ohio,41.3339,-84.0682
Adams County,Ohio,38.8455,-83.4721
Pike County,Ohio,39.0773,-83.0668
Carroll County,Ohio,40.5796,-81.0897
Meigs County,Ohio,39.0822,-82.0228
Wyandot County,Ohio,40.8424,-83.3044
Paulding County,Ohio,41.1166,-84.5802
Harrison County,Ohio,40.2938,-81.0911
Noble County,Ohio,39.766,-81.4555
Morgan County,Ohio,39.6204,-81.8527
Monroe County,Ohio,39.7274,-81.0829
Vinton County,Ohio,39.251,-82.4853
Oklahoma County,Oklahoma,35.5515,-97.4072
Tulsa County,Oklahoma,36.1211,-95.9415
Cleveland County,Oklahoma,35.2031,-97.3265
Canadian County,Oklahoma,35.5424,-97.9824
Comanche County,Oklahoma,34.6621,-98.4717
Rogers County,Oklahoma,36.3715,-95.6043
Wagoner County,Oklahoma,35.9611,-95.5212
Payne County,Oklahoma,36.0773,-96.9756
Pottawatomie County,Oklahoma,35.2066,-96.9484
Creek County,Oklahoma,35.9026,-96.3709
Muskogee County,Oklahoma,35.6162,-95.3795
Garfield County,Oklahoma,36.3791,-97.7827
Grady County,Oklahoma,35.0169,-97.8841
Washington County,Oklahoma,36.7152,-95.9044
Logan County,Oklahoma,35.9193,-97.4433
Le Flore County,Oklahoma,34.9003,-94.7034
Carter County,Oklahoma,34.2509,-97.2858
Cherokee County,Oklahoma,35.9067,-94.9997
Bryan County,Oklahoma,33.9623,-96.2598
Osage County,Oklahoma,36.6292,-96.3985
Kay County,Oklahoma,36.818,-97.1439
Pittsburg County,Oklahoma,34.9239,-95.7484
Stephens County,Oklahoma,34.4856,-97.8515
McClain County,Oklahoma,35.0093,-97.4443
Delaware County,Oklahoma,36.4082,-94.8026
Sequoyah County,Oklahoma,35.4953,-94.7552
Mayes County,Oklahoma,36.3019,-95.2307
Pontotoc County,Oklahoma,34.728,-96.6844
Okmulgee County,Oklahoma,35.6466,-95.9643
Lincoln County,Oklahoma,35.703,-96.8809
McCurtain County,Oklahoma,34.1154,-94.7713
Ottawa County,Oklahoma,36.8355,-94.8104
Custer County,Oklahoma,35.6388,-99.0015
Caddo County,Oklahoma,35.1744,-98.3751
Garvin County,Oklahoma,34.7046,-97.3093
Jackson County,Oklahoma,34.588,-99.4148
Seminole County,Oklahoma,35.1675,-96.6155
Beckham County,Oklahoma,35.2687,-99.682
Texas County,Oklahoma,36.7479,-101.4901
Woodward County,Oklahoma,36.4227,-99.2651
Adair County,Oklahoma,35.8839,-94.6587
McIntosh County,Oklahoma,35.3736,-95.6668
Pawnee County,Oklahoma,36.3169,-96.6992
Marshall County,Oklahoma,34.0245,-96.7691
Kingfisher County,Oklahoma,35.9454,-97.9421
Choctaw County,Oklahoma,34.0266,-95.5522
Craig County,Oklahoma,36.7617,-95.2085
Atoka County,Oklahoma,34.3737,-96.0378
Murray County,Oklahoma,34.4823,-97.0679
Hughes County,Oklahoma,35.0484,-96.2502
Haskell County,Oklahoma,35.2248,-95.1166
Okfuskee County,Oklahoma,35.4655,-96.3228
Noble County,Oklahoma,36.3886,-97.2305
Washita County,Oklahoma,35.2904,-98.9922
Pushmataha County,Oklahoma,34.4162,-95.3759
Johnston County,Oklahoma,34.3165,-96.6606
Love County,Oklahoma,33.9499,-97.2441
Latimer County,Oklahoma,34.876,-95.2504
Nowata County,Oklahoma,36.7985,-95.6174
Blaine County,Oklahoma,35.8752,-98.4334
Woods County,Oklahoma,36.7669,-98.8651
Kiowa County,Oklahoma,34.9164,-98.9809
Major County,Oklahoma,36.3116,-98.5359
Tillman County,Oklahoma,34.3728,-98.9242
Alfalfa County,Oklahoma,36.731,-98.324
Cotton County,Oklahoma,34.2902,-98.3722
Greer County,Oklahoma,34.9357,-99.5608
Jefferson County,Oklahoma,34.111,-97.8358
Coal County,Oklahoma,34.5882,-96.2978
Beaver County,Oklahoma,36.7497,-100.4768
Dewey County,Oklahoma,35.9876,-99.0079
Grant County,Oklahoma,36.7961,-97.7861
Ellis County,Oklahoma,36.2184,-99.7546
Roger Mills County,Oklahoma,35.6883,-99.6958
Harper County,Oklahoma,36.7888,-99.6673
Harmon County,Oklahoma,34.7441,-99.8462
Cimarron County,Oklahoma,36.7483,-102.5178
Multnomah County,Oregon,45.5468,-122.4149
Washington County,Oregon,45.56,-123.0984
Clackamas County,Oregon,45.188,-122.2208
Lane County,Oregon,43.9387,-122.848
Marion County,Oregon,44.9033,-122.5847
Jackson County,Oregon,42.4322,-122.7285
Deschutes County,Oregon,43.9151,-121.2281
Linn County,Oregon,44.4887,-122.5343
Douglas County,Oregon,43.2797,-123.1665
Yamhill County,Oregon,45.2326,-123.3081
Benton County,Oregon,44.4918,-123.4293
Josephine County,Oregon,42.3655,-123.5555
Polk County,Oregon,44.9035,-123.4132
Umatilla County,Oregon,45.5919,-118.7369
Klamath County,Oregon,42.6864,-121.6501
Coos County,Oregon,43.1742,-124.0594
Columbia County,Oregon,45.9438,-123.0883
Lincoln County,Oregon,44.642,-123.8682
Clatsop County,Oregon,45.995,-123.6557
Malheur County,Oregon,43.1934,-117.6232
Tillamook County,Oregon,45.4636,-123.7126
Wasco County,Oregon,45.16,-121.1678
Union County,Oregon,45.3102,-118.0088
Crook County,Oregon,44.1422,-120.3566
Jefferson County,Oregon,44.6294,-121.1761
Hood River County,Oregon,45.519,-121.6511
Curry County,Oregon,42.4576,-124.1568
Baker County,Oregon,44.7092,-117.6753
Morrow County,Oregon,45.419,-119.5844
Lake County,Oregon,42.7935,-120.3874
Harney County,Oregon,43.0641,-118.968
Wallowa County,Oregon,45.5799,-117.181
Grant County,Oregon,44.4915,-119.0073
Gilliam County,Oregon,45.3783,-120.2108
Sherman County,Oregon,45.4052,-120.6894
Wheeler County,Oregon,44.726,-120.0275
Philadelphia County,Pennsylvania,40.0077,-75.1339
Allegheny County,Pennsylvania,40.4688,-79.9812
Montgomery County,Pennsylvania,40.2108,-75.3673
Bucks County,Pennsylvania,40.337,-75.1069
Delaware County,Pennsylvania,39.9167,-75.3991
Lancaster County,Pennsylvania,40.0424,-76.2477
Chester County,Pennsylvania,39.9731,-75.7484
York County,Pennsylvania,39.92,-76.7265
Berks County,Pennsylvania,40.4163,-75.926
Lehigh County,Pennsylvania,40.6127,-75.5923
Westmoreland County,Pennsylvania,40.3109,-79.4668
Luzerne County,Pennsylvania,41.177,-75.9892
Northampton County,Pennsylvania,40.7542,-75.3076
Dauphin County,Pennsylvania,40.4155,-76.7794
Erie County,Pennsylvania,41.9925,-80.0327
Cumberland County,Pennsylvania,40.1636,-77.2655
Lackawanna County,Pennsylvania,41.4367,-75.6092
Washington County,Pennsylvania,40.1894,-80.2483
Butler County,Pennsylvania,40.912,-79.9133
Monroe County,Pennsylvania,41.0581,-75.3395
Beaver County,Pennsylvania,40.6823,-80.3493
Centre County,Pennsylvania,40.9189,-77.8199
Franklin County,Pennsylvania,39.9274,-77.7213
Lebanon County,Pennsylvania,40.3672,-76.4577
Schuylkill County,Pennsylvania,40.7058,-76.216
Cambria County,Pennsylvania,40.4952,-78.7135
Fayette County,Pennsylvania,39.9201,-79.6474
Blair County,Pennsylvania,40.4811,-78.3484
Lycoming County,Pennsylvania,41.3434,-77.0645
Mercer County,Pennsylvania,41.3022,-80.2577
Adams County,Pennsylvania,39.8715,-77.2178
Northumberland County,Pennsylvania,40.852,-76.7095
Lawrence County,Pennsylvania,40.9912,-80.3347
Crawford County,Pennsylvania,41.6847,-80.1062
Indiana County,Pennsylvania,40.652,-79.0876
Clearfield County,Pennsylvania,41,-78.4742
Somerset County,Pennsylvania,39.9725,-79.0283
Armstrong County,Pennsylvania,40.8121,-79.4646
Carbon County,Pennsylvania,40.9182,-75.7088
Columbia County,Pennsylvania,41.0486,-76.4052
Bradford County,Pennsylvania,41.7887,-76.5154
Pike County,Pennsylvania,41.332,-75.0338
Wayne County,Pennsylvania,41.6487,-75.3033
Venango County,Pennsylvania,41.401,-79.758
Bedford County,Pennsylvania,40.0065,-78.4903
Mifflin County,Pennsylvania,40.6104,-77.617
Perry County,Pennsylvania,40.3984,-77.2623
Jefferson County,Pennsylvania,41.1282,-78.9994
Huntingdon County,Pennsylvania,40.4169,-77.9812
Union County,Pennsylvania,40.963,-77.0622
Tioga County,Pennsylvania,41.7722,-77.2543
McKean County,Pennsylvania,41.8076,-78.569
Snyder County,Pennsylvania,40.7698,-77.0702
Susquehanna County,Pennsylvania,41.8214,-75.8007
Warren County,Pennsylvania,41.8145,-79.2741
Clinton County,Pennsylvania,41.234,-77.6385
Clarion County,Pennsylvania,41.1924,-79.421
Greene County,Pennsylvania,39.8538,-80.2229
Elk County,Pennsylvania,41.4251,-78.6491
Wyoming County,Pennsylvania,41.5184,-76.0164
Juniata County,Pennsylvania,40.5311,-77.4022
Montour County,Pennsylvania,41.0279,-76.6586
Potter County,Pennsylvania,41.7449,-77.8958
Fulton County,Pennsylvania,39.9254,-78.1127
Forest County,Pennsylvania,41.513,-79.236
Sullivan County,Pennsylvania,41.4462,-76.5122
Cameron County,Pennsylvania,41.4367,-78.204
Providence County,Rhode Island,41.8721,-71.58
Kent County,Rhode Island,41.6722,-71.5932
Washington County,Rhode Island,41.4697,-71.6226
Newport County,Rhode Island,41.5568,-71.2363
Bristol County,Rhode Island,41.7173,-71.284
Greenville County,South Carolina,34.8941,-82.3706
Richland County,South Carolina,34.0218,-80.9031
Charleston County,South Carolina,32.8348,-79.953
Horry County,South Carolina,33.9214,-78.9967
Spartanburg County,South Carolina,34.9309,-81.9908
Lexington County,South Carolina,33.9023,-81.2722
York County,South Carolina,34.9748,-81.1845
Berkeley County,South Carolina,33.1973,-79.9522
Anderson County,South Carolina,34.5193,-82.6378
Beaufort County,South Carolina,32.3856,-80.7306
Aiken County,South Carolina,33.5443,-81.6347
Dorchester County,South Carolina,33.0793,-80.4067
Florence County,South Carolina,34.0245,-79.703
Pickens County,South Carolina,34.8873,-82.7253
Sumter County,South Carolina,33.9162,-80.3822
Lancaster County,South Carolina,34.6867,-80.7054
Orangeburg County,South Carolina,33.439,-80.8003
Oconee County,South Carolina,34.7535,-83.0659
Greenwood County,South Carolina,34.1537,-82.1259
Laurens County,South Carolina,34.4834,-82.0057
Kershaw County,South Carolina,34.3388,-80.5902
Georgetown County,South Carolina,33.4343,-79.3326
Darlington County,South Carolina,34.3325,-79.9577
Cherokee County,South Carolina,35.0481,-81.6206
Chesterfield County,South Carolina,34.6398,-80.1587
Colleton County,South Carolina,32.8637,-80.667
Newberry County,South Carolina,34.2898,-81.6001
Chester County,South Carolina,34.692,-81.1595
Clarendon County,South Carolina,33.6658,-80.2164
Williamsburg County,South Carolina,33.6199,-79.7277
Jasper County,South Carolina,32.4374,-81.0317
Marion County,South Carolina,34.0801,-79.3625
Dillon County,South Carolina,34.3915,-79.3789
Union County,South Carolina,34.6895,-81.6191
Marlboro County,South Carolina,34.602,-79.6786
Edgefield County,South Carolina,33.7722,-81.9664
Abbeville County,South Carolina,34.2226,-82.4593
Fairfield County,South Carolina,34.3951,-81.1212
Barnwell County,South Carolina,33.2661,-81.4349
Saluda County,South Carolina,34.0061,-81.7268
Hampton County,South Carolina,32.7763,-81.1407
Lee County,South Carolina,34.1633,-80.2545
Calhoun County,South Carolina,33.6749,-80.7803
Bamberg County,South Carolina,33.2148,-81.0543
McCormick County,South Carolina,33.8995,-82.31
Allendale County,South Carolina,32.9881,-81.3582
Minnehaha County,South Dakota,43.6742,-96.7915
Pennington County,South Dakota,44.0037,-102.8238
Lincoln County,South Dakota,43.2789,-96.7218
Brown County,South Dakota,45.5898,-98.3516
Brookings County,South Dakota,44.3697,-96.7905
Meade County,South Dakota,44.5668,-102.7169
Codington County,South Dakota,44.9779,-97.1886
Lawrence County,South Dakota,44.3586,-103.7923
Yankton County,South Dakota,43.009,-97.3948
Davison County,South Dakota,43.6747,-98.146
Beadle County,South Dakota,44.4145,-98.2781
Hughes County,South Dakota,44.389,-99.996
Union County,South Dakota,42.8325,-96.656
Clay County,South Dakota,42.9146,-96.9756
Oglala Lakota County,South Dakota,43.3355,-102.5516
Lake County,South Dakota,44.0221,-97.1294
Butte County,South Dakota,44.9058,-103.5079
Roberts County,South Dakota,45.6296,-96.9461
Todd County,South Dakota,43.1934,-100.7184
Charles Mix County,South Dakota,43.2079,-98.5879
Turner County,South Dakota,43.3109,-97.1487
Custer County,South Dakota,43.6776,-103.4515
Grant County,South Dakota,45.1719,-96.7677
Hutchinson County,South Dakota,43.3349,-97.7544
Fall River County,South Dakota,43.2394,-103.5275
Bon Homme County,South Dakota,42.9885,-97.8846
Spink County,South Dakota,44.938,-98.3462
Moody County,South Dakota,44.022,-96.6709
Hamlin County,South Dakota,44.6738,-97.1883
McCook County,South Dakota,43.6743,-97.3684
Tripp County,South Dakota,43.3459,-99.8839
Day County,South Dakota,45.3671,-97.6074
Walworth County,South Dakota,45.4299,-100.0315
Dewey County,South Dakota,45.1566,-100.8718
Brule County,South Dakota,43.7181,-99.0809
Kingsbury County,South Dakota,44.3696,-97.4915
Marshall County,South Dakota,45.7586,-97.5986
Deuel County,South Dakota,44.76,-96.668
Edmunds County,South Dakota,45.4188,-99.2153
Gregory County,South Dakota,43.1924,-99.1856
Corson County,South Dakota,45.7086,-101.1969
Clark County,South Dakota,44.8582,-97.7295
Lyman County,South Dakota,43.8958,-99.8474
Hanson County,South Dakota,43.6748,-97.7873
Bennett County,South Dakota,43.195,-101.664
Hand County,South Dakota,44.5478,-99.0049
Stanley County,South Dakota,44.4123,-100.7359
Perkins County,South Dakota,45.4905,-102.4757
Jackson County,South Dakota,43.6943,-101.6281
Douglas County,South Dakota,43.3869,-98.3661
Aurora County,South Dakota,43.718,-98.5615
Potter County,South Dakota,45.0645,-99.9572
Ziebach County,South Dakota,44.9804,-101.6658
Sanborn County,South Dakota,44.0234,-98.0913
Miner County,South Dakota,44.0219,-97.6102
